area_type,code,area_name,lon,lat,area_store,area_sim_store,tot_customer,avg_take
골목상권,1000275,보문로26길,127.02135356029717,37.58720469334632,2.2857142857142856,2.2857142857142856,173264.67741935485,45304590.0
골목상권,1000276,보문로31길,127.01568136950489,37.58816964537452,7.428571428571429,7.714285714285714,376145.48387096776,77380562.4375
발달상권,1001045,동작구 총신대입구역_1,126.9808235857054,37.48597765914372,16.428571428571427,21.285714285714285,1137176.7419354839,1282810392.0
발달상권,1001046,서울 관악구 신림역_4,126.9302137115341,37.486436139402514,14.0,20.857142857142858,956831.0,518480351.25
발달상권,1001047,뱅뱅사거리_1,127.03346945025531,37.48862343831305,10.142857142857142,11.142857142857142,268116.4516129032,370725814.5
발달상권,1001048,뱅뱅사거리,127.02982945599554,37.49098505346684,13.428571428571429,18.285714285714285,479065.48387096776,1929482269.0625
발달상권,1001049,개봉동 현대아파트 인근,126.85579690602577,37.48956732297291,8.0,9.0,444540.1935483871,70770256.6875
발달상권,1001050,교대역_1,127.01156764763162,37.490790031276504,53.285714285714285,81.28571428571429,1741413.2258064516,3375599998.25
발달상권,1001260,창동역,127.04899997749135,37.652806377355745,7.714285714285714,20.571428571428573,592865.2258064516,776116411.3125
발달상권,1001261,서울 노원구 노원역_1,127.0626902470538,37.65411533094399,3.5714285714285716,10.571428571428571,585903.2580645161,1210922941.375
발달상권,1001262,서울 노원구 노원역_2,127.05890567576205,37.654639851230215,2.142857142857143,7.857142857142857,344235.8387096774,319095785.4375
발달상권,1001263,서울 노원구 노원역_3,127.0625105241541,37.65601649888629,24.714285714285715,44.0,1473688.1612903227,4353173813.125
발달상권,1001217,서울 종로구 종로5가역_1,127.0013923109485,37.570421097077954,2.142857142857143,2.142857142857143,270033.77419354836,250393238.625
발달상권,1001255,서울 은평구 연신내역_3,126.92047159847978,37.62069666168165,0.0,1.0,119219.7741935484,40237841.0625
발달상권,1001259,서울 강북구 수유역_3,127.0272040015457,37.64085736435166,4.714285714285714,7.714285714285714,274755.7419354839,61847539.0625
전통시장,1001310,구의시장,127.08846716777747,37.54550242151623,0.42857142857142855,0.42857142857142855,19224.548387096773,45304590.0
전통시장,1001322,동부시장,127.05259999071382,37.56730095286713,0.0,0.0,67930.16129032258,45304590.0
전통시장,1001323,답십리시장,127.05819657291528,37.57364133312369,2.5714285714285716,2.5714285714285716,134408.32258064515,45304590.0
전통시장,1001324,전곡시장,127.06883022580342,37.57808652423727,0.0,2.0,18333.41935483871,146134518.875
전통시장,1001325,청량리청과물시장,127.04318987696023,37.58011691623963,4.0,4.0,137283.83870967742,23071960.375
전통시장,1001451,사당시장,126.97513722688751,37.483003271393486,3.0,3.0,36428.1935483871,45304590.0
전통시장,1001468,남부종합시장,126.98489227985215,37.49477208354063,0.0,0.0,30869.677419354837,45304590.0
전통시장,1001469,양재시장,127.0383066275842,37.4840718777507,1.4285714285714286,1.4285714285714286,44297.16129032258,45304590.0
전통시장,1001407,등마루시장,126.86016068133681,37.556706219310875,0.0,0.0,19073.645161290322,45304590.0
전통시장,1001408,신월중앙시장,126.84434565394928,37.5588488207642,1.0,1.0,25026.677419354837,43639714.9375
전통시장,1001450,남성역골목시장,126.97245743180964,37.48348922176638,2.0,4.428571428571429,275676.0,117422153.75
발달상권,1001042,서울 서초구 남부터미널역_3,127.0161915795939,37.48678000320049,5.571428571428571,9.571428571428571,384326.1935483871,652370702.625
발달상권,1001043,동작구 총신대입구역_2,126.98302843524853,37.48591492585732,10.0,15.857142857142858,886334.2903225806,261130139.9375
발달상권,1001044,양재역_3,127.03115058953671,37.48651571376833,19.714285714285715,27.714285714285715,771500.0,1223439700.1875
발달상권,1001030,양재역_2,127.0363616986534,37.48365802839606,4.571428571428571,9.0,509256.1612903226,843119437.125
발달상권,1001031,서울 관악구 신림역_1,126.92883756748512,37.4829574265654,15.285714285714286,24.571428571428573,962389.6774193548,3150360901.25
발달상권,1001032,서울 관악구 신림역_2,126.93080498641467,37.482841464045244,3.4285714285714284,13.0,241619.64516129033,1362228094.75
발달상권,1001033,서울 서초구 남부터미널역_1,127.01878025964147,37.48431986735238,14.714285714285714,18.428571428571427,263337.8064516129,756528663.3125
골목상권,1000379,동일로173가길,127.07243887072359,37.622043697935894,5.571428571428571,5.571428571428571,591910.7741935484,43642546.9375
골목상권,1000380,동일로192길,127.0755690585679,37.62581687022158,7.714285714285714,14.142857142857142,589727.1290322581,678990778.9375
골목상권,1000381,동일로242길,127.05866096147015,37.67488501157822,7.714285714285714,8.857142857142858,279855.87096774194,141537328.625
골목상권,1000071,이태원로54길,127.00136905188955,37.536543574586496,39.5,41.5,249567.25806451612,2210738813.5625
골목상권,1000072,장문로45길,127.00046384506732,37.52870487172285,1.8333333333333333,1.8333333333333333,318425.12903225806,2142720.75
골목상권,1000073,청파로47길,126.96792002437306,37.544549114266864,33.166666666666664,45.0,742416.3548387097,2092579554.125
전통시장,1001490,길동복조리시장,127.14367486055193,37.538447392541784,4.428571428571429,4.714285714285714,442639.6451612903,50524384.125
전통시장,1001332,사가정시장,127.09044539460683,37.58126145968097,0.14285714285714285,1.8571428571428572,401253.2580645161,78604804.375
전통시장,1001333,중화제일시장,127.07544588440813,37.604814912176174,2.857142857142857,2.857142857142857,167809.06451612903,13135261.875
전통시장,1001334,태능시장,127.07653767941356,37.59826400907771,1.0,1.0,187784.32258064515,45304590.0
전통시장,1001335,묵1동도깨비시장,127.0809514877725,37.616875506063934,2.142857142857143,2.142857142857143,102475.41935483871,132240550.75
전통시장,1001336,우림골목시장,127.09805213757389,37.59766245247334,2.857142857142857,3.857142857142857,378441.12903225806,121050770.625
전통시장,1001337,유영시장,127.09684393083963,37.591572748702255,0.0,0.0,17616.290322580644,45304590.0
전통시장,1001338,돈암제일시장,127.01587463871735,37.59189071792463,0.0,0.0,523805.5483870968,45304590.0
전통시장,1001377,영천시장,126.96129826420189,37.5704598113684,0.0,1.0,141887.48387096773,53336633.4375
발달상권,1001057,교대역_2,127.01596682099772,37.493267288811936,16.571428571428573,31.0,1122189.8709677418,1088935224.875
발달상권,1001058,역삼역_1,127.03722618303436,37.494118459450675,13.571428571428571,16.571428571428573,481439.2580645161,1495658866.25
발달상권,1001059,교대역_3,127.01204311976798,37.494240841590305,8.285714285714286,13.571428571428571,302761.93548387097,652109007.8125
발달상권,1001060,가락시장,127.113487750174,37.49406981478419,0.14285714285714285,1.1428571428571428,23892.1935483871,386660674.0
발달상권,1001061,방배동카페골목,126.98638497674007,37.49467315423672,8.428571428571429,11.857142857142858,376587.7419354839,475638444.9375
발달상권,1001062,서울 강남구 강남역_1,127.02732075688415,37.495346534821586,29.142857142857142,48.285714285714285,1246047.7419354839,4224917170.3125
발달상권,1001181,서울 광진구 군자역,127.07848699391494,37.55666383323358,10.714285714285714,16.0,475326.06451612903,593080746.25
발달상권,1001123,학동사거리_1,127.036493181618,37.52150923659847,11.428571428571429,20.142857142857142,510905.8387096774,1525052393.3125
발달상권,1001017,관악구 사당역_3,126.98097322504685,37.47552597828984,6.285714285714286,13.285714285714286,239883.38709677418,752010167.6875
발달상권,1001018,포이사거리_2,127.04417032889133,37.47659145589457,18.428571428571427,26.285714285714285,397334.0,868269432.3125
발달상권,1001019,포이사거리_1,127.04610381207898,37.477005181709146,1.0,3.0,89673.74193548386,441073669.75
발달상권,1001020,장지역,127.12204320261074,37.477248481146304,16.285714285714285,31.428571428571427,72636.22727272728,1654425497.6875
발달상권,1001021,가산디지털단지역_1,126.88456732142473,37.47198421841353,18.0,32.57142857142857,66943.90322580645,735553938.875
발달상권,1001038,구로디지탈1단지,126.89508680818014,37.48380625597272,43.714285714285715,87.71428571428571,685805.7419354839,4641766405.75
발달상권,1001039,서울 서초구 남부터미널역_2,127.01369267538392,37.48642892605263,23.285714285714285,29.571428571428573,734223.0967741936,880681198.5
발달상권,1001040,서울 관악구 신림역_3,126.92852988341207,37.48548907432291,4.714285714285714,11.571428571428571,817879.0967741936,1068488142.0
발달상권,1001041,서울 강남구 수서역,127.10338078395336,37.48763689043684,12.428571428571429,27.714285714285715,498916.7419354839,1869829244.875
골목상권,1000377,해등로16길,127.0426668642167,37.65547574605313,4.142857142857143,6.571428571428571,253367.64516129033,193273208.0625
골목상권,1000378,공릉로58길,127.07397072659852,37.63615219120443,6.142857142857143,8.142857142857142,166191.90322580645,56650561.25
골목상권,1000298,정릉로27길,127.01286535692006,37.60697367210774,0.0,1.0,217029.0,24205387.625
골목상권,1000299,정릉로8길,126.99792749494841,37.6071455432061,4.285714285714286,4.285714285714286,75536.67741935483,9221385.9375
골목상권,1000376,우이천로4다길,127.04031008537356,37.63521344861366,0.8571428571428571,0.8571428571428571,298729.22580645164,45304590.0
전통시장,1001292,이태원제일시장,126.98779125338027,37.53914684239876,1.0,1.0,29904.548387096773,45304590.0
전통시장,1001293,보광시장,127.00037333031572,37.52701999855625,3.0,3.0,32635.677419354837,45304590.0
전통시장,1001278,남평화시장,127.010810038063,37.56916822669786,3.0,3.0,201490.0,45304590.0
전통시장,1001279,동평화시장,127.01307393450413,37.56924908729413,4.571428571428571,9.0,176837.87096774194,279549109.1875
전통시장,1001280,제일평화시장,127.01156831600028,37.568375278700614,0.7142857142857143,0.7142857142857143,67069.2258064516,45304590.0
골목상권,1000300,종암로16길,127.03694960878664,37.59824700224238,4.142857142857143,4.714285714285714,531498.3225806452,56111947.25
전통시장,1001281,청평화시장,127.01500962462404,37.569591235352874,0.0,1.0,63113.096774193546,45304590.0
전통시장,1001282,약수시장,127.01055869791927,37.552779117727084,0.5714285714285714,0.5714285714285714,375247.77419354836,120855710.1875
전통시장,1001283,백학시장,127.019400052715,37.563698082212916,3.857142857142857,3.857142857142857,184804.93548387097,44988378.0625
전통시장,1001284,서울중앙시장,127.01963859917295,37.566959648728094,0.0,0.0,575325.9677419355,12682265.875
전통시장,1001309,조양시장,127.06748167951677,37.538911952569784,0.0,0.0,29762.870967741936,45304590.0
전통시장,1001368,연서시장,126.92167346415707,37.619571231155106,1.0,1.0,159225.06451612903,37996737.25
전통시장,1001369,갈현시장,126.91740988335779,37.623739895187256,0.0,2.0,30771.09677419355,45304590.0
전통시장,1001370,역촌중앙시장,126.91622088862053,37.613278589249596,3.0,3.0,26607.677419354837,45304590.0
전통시장,1001371,대조시장,126.92685978763448,37.60950150921935,3.0,3.0,38949.545454545456,45304590.0
발달상권,1001098,포스코사거리_1,127.05400674639628,37.50896055541883,25.0,38.57142857142857,934689.4193548387,1373514282.125
발달상권,1001099,포스코사거리_2,127.05624676889406,37.50973437396545,13.0,21.857142857142858,693179.1612903225,1491173243.6875
발달상권,1001100,강남구 논현역_3,127.02184113245826,37.51210637798919,5.0,8.285714285714286,243973.70967741936,261850944.4375
발달상권,1001101,선정릉역_2,127.04620448208236,37.511964209812604,18.857142857142858,21.571428571428573,410112.96774193546,603593469.3125
발달상권,1001102,서울 강남구 학동역_1,127.02947611581212,37.512618291870304,3.4285714285714284,3.4285714285714284,227226.64516129033,168688467.375
발달상권,1001103,코엑스,127.05975407071885,37.51107514837405,20.0,52.0,98875.19354838709,3762123073.9375
발달상권,1001104,삼성역_3,127.06388298678927,37.51170369047007,16.571428571428573,22.428571428571427,172836.96774193548,1263148999.4375
발달상권,1001055,서울 서초구 서초역,127.00894459146538,37.49331307953432,12.571428571428571,13.571428571428571,162489.12903225806,339310516.25
발달상권,1001056,서울 송파구 가락시장역,127.11918680395776,37.49393806173699,6.571428571428571,15.0,535623.9032258064,1384106226.5
발달상권,1001027,가산디지털단지역_3,126.8864341433713,37.47843725502126,54.42857142857143,105.57142857142857,540391.9032258064,5702558620.375
발달상권,1001028,서울 관악구 서울대입구역_2,126.95484171774832,37.48387123577071,3.7142857142857144,3.7142857142857144,234792.25806451612,114173925.0625
발달상권,1001029,양재역_1,127.0317592337244,37.48195644871718,4.142857142857143,10.0,56185.16129032258,612800917.875
발달상권,1001011,서울 금천구 시흥1동_4,126.90151548643851,37.452943165976684,8.857142857142858,14.857142857142858,414059.7419354839,508600626.5
발달상권,1001054,서울 강남구 대치역_2,127.05970614658726,37.49350556247691,4.285714285714286,7.0,210771.64516129033,258173149.6875
발달상권,1001012,양재 화물트럭터미널앞_1,127.03572950785127,37.46195288464275,3.0,4.0,19964.129032258064,67385871.9375
발달상권,1001013,양재 화물트럭터미널앞_2,127.0369515023419,37.46448435173673,3.5714285714285716,4.571428571428571,41232.967741935485,709033838.0
발달상권,1001014,양재동 꽃시장,127.04009514194523,37.466798926021674,2.142857142857143,2.142857142857143,16196.612903225807,157940687.9375
발달상권,1001015,서울 금천구 독산1동_1,126.89647392543884,37.470013027610726,5.714285714285714,14.0,235828.1935483871,909185911.0
발달상권,1001016,서울 관악구 대학동_1,126.9397582692801,37.47045748675511,9.428571428571429,12.428571428571429,464285.03225806454,472731617.5625
골목상권,1000155,아차산로78길,127.10782968128034,37.54628821661367,7.857142857142857,8.857142857142858,149056.5483870968,346783151.25
골목상권,1000156,용마산로21길,127.08506933925977,37.562704962308366,9.0,12.285714285714286,693613.5806451613,166189254.375
골목상권,1000157,용마산로3길,127.0848812735163,37.55656029984123,1.2857142857142858,2.2857142857142856,394975.3870967742,15726881.625
골목상권,1000158,자양로11길,127.08288695723225,37.53391961280386,5.142857142857143,6.142857142857143,1007712.7096774194,148872225.4375
골목상권,1000295,장월로1길,127.04486969357842,37.606136933117284,5.571428571428571,6.142857142857143,545839.6129032258,76095584.9375
골목상권,1000296,장위로50길,127.05706191208294,37.61465502502365,0.0,0.0,180605.90322580645,45304590.0
골목상권,1000297,정릉로26길,127.01157380260076,37.60382034084607,2.857142857142857,3.857142857142857,201455.70967741936,33155059.1875
전통시장,1001277,방산종합시장,127.0001245116387,37.56803346704921,10.142857142857142,10.142857142857142,480793.96774193546,102934495.3125
전통시장,1001264,통인시장,126.96990837264661,37.58067959801362,11.428571428571429,11.428571428571429,144751.64516129033,682494964.875
전통시장,1001265,광장시장,126.99941138428245,37.569970606126326,2.4285714285714284,3.4285714285714284,181146.96774193548,86757703.375
전통시장,1001266,동대문종합시장,127.00809351482725,37.57042082785713,3.4285714285714284,5.714285714285714,218083.1935483871,174616818.25
전통시장,1001267,종로신진시장,127.00529756952639,37.570366926707166,10.285714285714286,11.714285714285714,256581.5806451613,141463693.5
전통시장,1001268,충신시장,127.00571668026423,37.57410603671966,0.0,1.0,66500.41935483871,45304590.0
전통시장,1001269,동문시장,127.01112718531732,37.570537710296215,0.0,0.0,40502.5,45304590.0
전통시장,1001270,창신골목시장,127.0115237287406,37.57285322980232,1.8571428571428572,1.8571428571428572,261020.64516129033,19794324.0
전통시장,1001272,신설종합시장,127.02098716952338,37.57266271778433,0.0,0.0,25070.967741935485,45304590.0
전통시장,1001286,후암시장,126.97628039005014,37.550632831653395,0.0,0.0,38073.74193548387,45304590.0
전통시장,1001287,신흥시장,126.98506315071423,37.54525530656243,9.571428571428571,10.571428571428571,34492.25806451613,93922554.75
전통시장,1001289,용문전통시장,126.96026355135787,37.53654590718111,1.5714285714285714,3.5714285714285716,209636.7741935484,45304590.0
전통시장,1001290,이촌종합시장,126.97476277019915,37.520602165174964,1.0,2.0,48852.3870967742,211749593.0625
전통시장,1001291,이태원시장,126.98939870878053,37.53389416451648,3.857142857142857,4.857142857142857,23882.967741935485,442143527.6875
발달상권,1001092,강남구 논현역_1,127.02194136821261,37.506772411794465,25.285714285714285,36.142857142857146,1086997.322580645,1237556230.6875
발달상권,1001093,신천역,127.08170705738294,37.510206048895434,24.857142857142858,44.857142857142854,1455813.3548387096,2636957583.75
발달상권,1001094,선정릉역_1,127.04683707408867,37.51066651445342,3.4285714285714284,6.571428571428571,80938.87096774194,214314389.1875
발달상권,1001095,강남구 논현역_2,127.02497287577978,37.50806925695847,33.857142857142854,53.42857142857143,1743477.0322580645,3650214852.625
전통시장,1001288,만리시장,126.96367337165762,37.55128735486901,1.0,1.0,28674.90322580645,45304590.0
발달상권,1001096,신도림역,126.89005341254958,37.50830905050998,10.142857142857142,37.714285714285715,658898.9032258064,3121228500.5
발달상권,1001052,뱅뱅사거리_2,127.03248705054254,37.491696148423806,29.857142857142858,43.57142857142857,599430.5161290322,1620558410.6875
발달상권,1001053,서울 강남구 대치역_1,127.06176402022076,37.493288262855124,3.142857142857143,8.285714285714286,85487.16129032258,741363704.125
발달상권,1001022,관악구 사당역_2,126.98056555160662,37.47816587022181,12.714285714285714,14.714285714285714,519520.5806451613,2450132879.5
발달상권,1001023,가산디지털단지역_2,126.88001831527892,37.481872767274155,35.142857142857146,64.71428571428571,119922.80645161291,1950826317.3125
발달상권,1001024,관악구 사당역_1,126.98318846514128,37.47817528262151,14.0,22.571428571428573,634274.0967741936,1286938516.0
발달상권,1001025,서울 관악구 서울대입구역_1,126.95237888491067,37.48073475833174,27.714285714285715,48.57142857142857,2132426.4838709678,2230767588.5625
발달상권,1001026,구로디지털단지역,126.88836389120875,37.48080874716509,1.0,1.0,80831.03225806452,45304590.0
발달상권,1001097,잠실역 롯데월드,127.09807487617543,37.51137390833691,8.714285714285714,20.428571428571427,40395.903225806454,2517406724.0625
발달상권,1001051,보라매공원,126.92504171914183,37.49117227142047,14.0,29.0,849872.1935483871,1939252846.5
골목상권,1000067,원효로53길,126.962446852187,37.53733049201621,4.333333333333333,4.333333333333333,324584.8387096774,41155747.4375
골목상권,1000068,원효로89길,126.96870217399656,37.54127869587753,15.5,16.5,437455.6129032258,427559295.5
골목상권,1000069,이촌로22길,126.9556649066854,37.52582235495916,3.0,3.0,192721.61290322582,68916237.6875
골목상권,1000070,이태원로27길,126.9938110272278,37.53597578998269,4.833333333333333,5.833333333333333,271611.22580645164,255573995.9375
골목상권,1000152,아차산로51길,127.08465871524909,37.53990099747857,3.0,4.571428571428571,353443.22580645164,45304590.0
골목상권,1000153,아차산로55길,127.08749813117429,37.53934931787935,2.4285714285714284,3.4285714285714284,493678.29032258067,80144663.3125
골목상권,1000154,아차산로65길,127.09270717418437,37.54273310165684,5.714285714285714,8.428571428571429,381677.0,59136941.5
전통시장,1001300,화양제일골목시장,127.06897896366658,37.54295657610216,1.0,2.142857142857143,135837.09677419355,90919348.75
전통시장,1001301,중곡제일시장,127.08122227894687,37.56381589690654,2.4285714285714284,4.285714285714286,170071.5483870968,19044845.6875
전통시장,1001302,면곡골목시장,127.08075472787203,37.571069232038916,1.0,1.0,76995.67741935483,45304590.0
전통시장,1001303,신성골목시장,127.08836862482477,37.557882207018466,0.0,0.0,35938.032258064515,45304590.0
전통시장,1001304,자양골목시장,127.0796741157871,37.53425519432588,1.1428571428571428,2.142857142857143,399191.6451612903,45304590.0
전통시장,1001305,자양종합시장,127.07640188035896,37.531851684331734,3.0,3.0,28618.354838709678,45304590.0
전통시장,1001306,노룬산골목시장,127.06496777853715,37.53659779184103,0.0,0.0,94516.25806451614,45304590.0
전통시장,1001307,능동로골목시장,127.06674282679104,37.535110151175616,0.0,1.0,108498.51612903226,5532168.75
전통시장,1001308,영동교골목시장,127.06397332818047,37.53803092517618,1.0,1.0,246592.0,45304590.0
전통시장,1001273,남대문시장,126.97839392940769,37.55986846331072,34.714285714285715,43.857142857142854,1122043.7741935484,2860898871.8125
전통시장,1001274,신중부시장,127.00026033405094,37.56560077788206,4.571428571428571,5.571428571428571,529832.1290322581,151527069.625
전통시장,1001275,인현시장,126.9950651264428,37.56325808472952,5.571428571428571,5.571428571428571,80232.90322580645,54209406.25
전통시장,1001276,평화시장,127.00803675030764,37.56887111952541,15.714285714285714,22.285714285714285,55812.645161290326,1412564024.5625
발달상권,1001069,은마아파트입구사거리_3,127.0597331901952,37.49906475931724,0.5714285714285714,4.571428571428571,113038.45161290323,178252640.25
발달상권,1001070,은마아파트입구사거리_4,127.06181458398488,37.49975746322555,3.5714285714285716,5.571428571428571,158001.1935483871,605888466.875
발달상권,1001071,서울 강남구 한티역,127.05358055707585,37.49817571394421,18.857142857142858,30.0,516964.0967741936,1209878185.3125
발달상권,1001165,서울 광진구 건대입구역_2,127.06960014021577,37.54169481234147,31.714285714285715,46.714285714285715,1437520.7096774194,4029757103.9375
발달상권,1001166,서울 마포구 마포역_2,126.94518974329746,37.54054031359572,21.142857142857142,35.285714285714285,1211146.4193548388,961998885.8125
발달상권,1001167,서울 마포구 공덕역_1,126.95159252793033,37.542939770927525,6.0,10.142857142857142,301354.5483870968,1035566383.3125
발달상권,1001089,삼정역_1,127.03644114171418,37.50754369288381,3.4285714285714284,5.428571428571429,210532.12903225806,517316733.0
발달상권,1001090,삼정역_2,127.03522007445697,37.50844506812788,13.714285714285714,16.714285714285715,357734.2580645161,466080504.75
발달상권,1001091,삼성역_2,127.06513556420268,37.50835126987693,7.0,16.857142857142858,168040.93548387097,1059571445.0
골목상권,1000277,보문로32길,127.0201317226878,37.590745808586,17.714285714285715,21.714285714285715,651778.4838709678,792189950.4375
골목상권,1000278,삼선교로10길,127.00966905845232,37.58680979195958,2.142857142857143,4.142857142857143,500594.32258064515,86824536.0
골목상권,1000279,삼선교로10다길,127.00875172189099,37.58469252997415,2.4285714285714284,2.4285714285714284,244392.74193548388,58220163.375
골목상권,1000280,삼선교로16가길,127.01154815247764,37.58440397169849,0.0,0.0,394348.3548387097,45304590.0
골목상권,1000064,우사단로4길,126.99850660509166,37.53071409672035,4.0,4.0,385820.5483870968,188233189.375
골목상권,1000065,원효로19길,126.95359008797688,37.533191750440004,4.0,5.0,289274.8387096774,148436707.625
골목상권,1000066,원효로41길,126.95677968602872,37.53482377237657,2.5,2.5,159721.29032258064,45304590.0
전통시장,1001298,성동용답상가시장,127.05234838492093,37.563606981029494,2.142857142857143,5.142857142857143,211630.90322580645,124378953.3125
전통시장,1001311,동부청과시장,127.042973192155,37.57735995363058,0.0,0.0,10473.032258064517,45304590.0
전통시장,1001314,경동시장,127.03902330140541,37.57930747265717,1.4285714285714286,1.4285714285714286,74556.7741935484,45304590.0
전통시장,1001315,동서시장,127.0414123248943,37.57985626500525,3.0,3.0,28857.548387096773,45304590.0
전통시장,1001316,서울약령시장,127.03750771415709,37.58213708424979,4.857142857142857,4.857142857142857,665877.8064516129,19323663.4375
전통시장,1001317,청량리농수산물시장,127.04118657439247,37.58107268555848,3.0,3.0,21379.774193548386,45304590.0
전통시장,1001318,청량리전통시장,127.04263552493434,37.5807838531397,3.0,3.0,64484.096774193546,45304590.0
전통시장,1001319,청량리종합시장,127.04037056666714,37.57944216868575,1.0,1.0,81958.41935483871,45304590.0
전통시장,1001320,전농로터리시장,127.05672804457532,37.57770553283901,0.0,2.0,86822.83870967742,151540663.5625
전통시장,1001312,용두시장,127.02976243882634,37.578481256301714,3.0,3.0,22129.064516129034,45304590.0
전통시장,1001313,청량리수산시장,127.04150198792094,37.57822543442258,0.0,1.0,98776.32258064517,69826325.1875
전통시장,1001321,답십리현대시장,127.0594816021787,37.56677510875752,1.0,1.0,131912.35483870967,45304590.0
전통시장,1001299,한아름시장,127.06989605257513,37.54353267640729,1.2857142857142858,1.2857142857142858,46552.58064516129,45304590.0
발달상권,1001085,서울 서초구 강남역,127.03054633381461,37.50203121152806,96.42857142857143,149.0,3175393.1612903224,10196937998.1875
발달상권,1001086,고속터미널역,127.00585841327658,37.50474704248736,19.571428571428573,36.0,59648.63636363636,4788047856.6875
발달상권,1001087,서울 강남구 선릉역_2,127.04531799918914,37.50494572617329,43.0,63.857142857142854,1070444.5806451612,4971732607.1875
발달상권,1001088,삼성역_1,127.06036130395252,37.50667793699713,20.285714285714285,38.42857142857143,974123.0,1907327203.3125
발달상권,1001066,서울 강남구 강남역,127.03048734774165,37.49603052520305,22.571428571428573,48.42857142857143,1597498.5483870967,4885738054.75
발달상권,1001067,오류동역,126.84279231806514,37.49548836626892,2.2857142857142856,6.285714285714286,453483.4193548387,169700827.125
발달상권,1001068,은마아파트입구사거리_2,127.06235680520315,37.49902736333294,4.428571428571429,5.428571428571429,82645.93548387097,220871861.4375
골목상권,1000293,인촌로5길,127.02056152342301,37.589069888712466,7.857142857142857,7.857142857142857,315107.4193548387,131783992.125
골목상권,1000294,인촌로6길,127.02135234042038,37.58293398628817,1.2857142857142858,2.142857142857143,249161.48387096773,45304590.0
골목상권,1000212,천호대로77길,127.06267116438009,37.56389928147714,0.8571428571428571,1.8571428571428572,256556.70967741936,45304590.0
골목상권,1000213,천호대로97길,127.07043465104928,37.56275063990482,0.8571428571428571,0.8571428571428571,364482.03225806454,45304590.0
골목상권,1000214,한천로14길,127.06539036288811,37.56702426272566,5.714285714285714,5.714285714285714,490684.5483870968,63486378.625
골목상권,1000215,한천로33길,127.06708618306541,37.577366732991294,1.2857142857142858,2.4285714285714284,222946.5483870968,71478095.1875
골목상권,1000273,보국문로16길,127.01022736468003,37.61256006404193,4.571428571428571,4.571428571428571,284508.48387096776,76387962.9375
골목상권,1000274,보문로13길,127.02084206689122,37.58004188788442,2.857142857142857,2.857142857142857,543814.2903225806,14308449.875
골목상권,1000370,방학로15길,127.02417349329981,37.659391247274804,4.0,4.0,187151.90322580645,32704488.125
골목상권,1000371,방학로5길,127.0376147199963,37.6597391098479,2.0,2.0,495334.70967741933,17965486.75
골목상권,1000372,방학로6가길,127.03731107439158,37.664433318720725,2.2857142857142856,2.2857142857142856,284257.8064516129,5440359.0625
골목상권,1000373,삼양로144길,127.0138927944061,37.65090565207283,15.428571428571429,17.714285714285715,191005.03225806452,256502207.125
골목상권,1000374,시루봉로23길,127.04246146636115,37.67289178170676,3.857142857142857,3.857142857142857,239888.90322580645,13059677.5625
골목상권,1000369,방학로10길,127.03378616624471,37.66426319465528,0.5714285714285714,0.7142857142857143,219677.61290322582,21751698.25
골목상권,1000375,우이천로32길,127.02536033944621,37.65019196760325,2.5714285714285716,2.5714285714285716,318614.1612903226,20939420.75
전통시장,1001326,회기시장,127.05557197790903,37.59111286011739,10.142857142857142,13.142857142857142,185690.5483870968,314434447.9375
전통시장,1001327,이경시장,127.0660939710493,37.59470239435596,0.0,0.0,18277.225806451614,45304590.0
전통시장,1001328,이문제일시장,127.06241081007137,37.60455222823275,3.0,3.0,18805.863636363636,45304590.0
전통시장,1001329,동부골목시장,127.07690536552167,37.59243435616141,4.142857142857143,8.857142857142858,317997.12903225806,546183890.875
전통시장,1001330,동원시장,127.09072759033637,37.58990176352666,1.2857142857142858,2.4285714285714284,457119.29032258067,84235193.25
전통시장,1001331,면목골목시장,127.08483757281584,37.57790491668717,0.0,1.0,279777.32258064515,12375356.3125
전통시장,1001285,합동(새벽)시장,126.9675964607861,37.56008223294128,5.142857142857143,5.142857142857143,40293.87096774193,94399768.6875
전통시장,1001294,마장축산물시장,127.04036558148313,37.570206975507475,1.0,2.0,165553.0,45304590.0
전통시장,1001295,행당시장,127.03339991642562,37.5609559222069,2.7142857142857144,4.714285714285714,434504.1935483871,265658811.0
전통시장,1001296,금남시장,127.02229309489861,37.54854279302089,0.0,0.0,73739.12903225806,45304590.0
전통시장,1001297,뚝도시장,127.05450305757522,37.53821587578757,1.1428571428571428,1.1428571428571428,93720.12903225806,45304590.0
발달상권,1001115,서울 강남구 강남구청역_2,127.03797273360779,37.51687761404692,15.571428571428571,22.571428571428573,582977.5483870967,1042896075.9375
발달상권,1001116,영등포역_1,126.91036717468776,37.51724614982384,0.0,2.0,73635.41935483871,65880842.875
발달상권,1001117,강남구 신사역_2,127.02358450208524,37.51689938344783,18.142857142857142,26.714285714285715,814231.2258064516,2500581449.9375
발달상권,1001118,문래동 주민센터,126.89865048270202,37.51570497175982,14.571428571428571,27.0,126860.03333333334,991014299.125
발달상권,1001119,영등포역_2,126.90870310352355,37.51829003889983,7.571428571428571,9.428571428571429,961028.1290322581,194883444.5625
발달상권,1001082,선릉역_2,127.05303059892454,37.50406854038104,41.285714285714285,66.14285714285714,2912489.5483870967,5042272178.125
발달상권,1001083,서울 송파구 석촌역_2,127.10771546251011,37.506211765399414,1.0,3.0,137883.12903225806,96734885.9375
발달상권,1001084,서울 강남구 선릉역_1,127.0501366139763,37.505961915174254,10.0,21.571428571428573,481406.32258064515,1208354050.0
골목상권,1000210,천호대로17길,127.03235395138553,37.57627313855811,4.571428571428571,4.571428571428571,712975.9032258064,33168246.0
골목상권,1000211,천호대로45길,127.0428700872885,37.57523364435813,0.42857142857142855,0.42857142857142855,431152.3870967742,45304590.0
골목상권,1000221,휘경로3길,127.06305037536431,37.59750614234382,2.7142857142857144,6.0,678281.4838709678,300522895.8125
골목상권,1000289,인촌로17가길,127.02367473340867,37.587627717199915,5.142857142857143,5.142857142857143,300771.70967741933,104516687.25
골목상권,1000290,인촌로1길,127.01898726015551,37.58731321683225,7.285714285714286,8.285714285714286,308994.87096774194,216886745.125
골목상권,1000291,개운사길,127.02948317032062,37.587995816286835,13.142857142857142,18.142857142857142,312177.1935483871,1099435712.3125
골목상권,1000292,인촌로24길,127.02948154992718,37.583887288845645,9.428571428571429,22.142857142857142,497604.12903225806,1205304094.0
골목상권,1000541,은행정로7길,126.85739611676023,37.522681178005406,2.2857142857142856,3.2857142857142856,487020.51612903224,6774050.375
골목상권,1000767,성대로29길,126.93775522087222,37.50030685098623,0.7142857142857143,0.7142857142857143,202560.96774193548,45304590.0
골목상권,1000768,신대방길,126.91035569603737,37.48900863315043,4.142857142857143,7.142857142857143,339561.96774193546,169980320.4375
골목상권,1000769,양녕로26길,126.94386486112785,37.49659776645976,1.5714285714285714,4.571428571428571,429435.77419354836,88107302.0
골목상권,1000422,증산로13길,126.91124462810645,37.58813731822375,1.5714285714285714,1.5714285714285714,372982.96774193546,4901382.5
골목상권,1000423,증산로15길,126.90797022923144,37.589972834790295,3.0,3.0,149755.35483870967,45304590.0
발달상권,1001107,방이동 먹자골목,127.10889191070606,37.51414853328456,10.0,14.428571428571429,826196.1612903225,1383930016.9375
발달상권,1001108,학동역,127.02923926253403,37.51434827848273,3.142857142857143,4.0,224541.1935483871,75084321.875
발달상권,1001109,강남구 논현역_4,127.01884405684132,37.513233149366116,27.428571428571427,41.0,1287818.4516129033,1693297515.3125
발달상권,1001110,잠실역,127.10251412658317,37.51537059547255,13.0,28.285714285714285,545141.1290322581,3111910279.5
발달상권,1001111,서울 강남구 강남구청역_1,127.03939736285625,37.515696832760256,12.0,18.285714285714285,600583.0,1106832418.8125
발달상권,1001112,서울 강남구 학동역_3,127.032859340062,37.51552764185954,8.857142857142858,15.571428571428571,315965.96774193546,1003705075.6875
발달상권,1001113,서울 동작구 노량진1동_1,126.94192832963913,37.51479713410461,1.8571428571428572,4.857142857142857,59743.51612903226,802357970.5625
발달상권,1001106,서울 강남구 학동역_2,127.03309631639786,37.51425716032486,2.0,4.571428571428571,283022.6129032258,84344701.75
발달상권,1001114,강남구 신사역_1,127.01744225292678,37.51647697852127,4.428571428571429,5.0,283635.3870967742,259473250.75
골목상권,1000057,백범로79길,126.96414244508179,37.54066471946812,8.666666666666666,9.666666666666666,648408.8387096775,248807346.125
골목상권,1000058,백범로90길,126.96920179536595,37.53701709674336,3.0,6.0,467449.0,154069211.875
골목상권,1000059,서빙고로71길,126.99518095335578,37.522226568276366,2.3333333333333335,2.3333333333333335,208056.74193548388,45304590.0
골목상권,1000060,소월로20길,126.9854481136523,37.54409306555162,8.833333333333334,9.166666666666666,512718.70967741933,33896832.5625
골목상권,1000061,신흥로20길,126.98339932333285,37.54708411245787,11.833333333333334,11.833333333333334,253586.83870967742,130992440.6875
골목상권,1000207,제기로5길,127.03554041245376,37.58764276076928,10.0,10.0,335841.6451612903,147894808.875
골목상권,1000208,천장산로7길,127.05621157396709,37.59845563809562,11.0,14.0,326558.3870967742,387454097.5625
골목상권,1000209,천호대로12길,127.02917127826196,37.5721293920996,0.0,0.0,143774.48387096773,45304590.0
골목상권,1000017,종로24길,126.99357054630521,37.56949290492456,6.666666666666667,6.666666666666667,95975.70967741935,84413907.8125
골목상권,1000018,종로58가길,127.01641387029004,37.5724652233214,1.0,4.0,392302.6129032258,70502181.1875
골목상권,1000734,국사봉2길,126.92915191479477,37.497292644093235,1.0,1.7142857142857142,261647.51612903227,18375383.3125
골목상권,1000735,국사봉길,126.93227440783444,37.49581682480193,2.857142857142857,3.0,563414.2903225806,8854785.5625
골목상권,1000736,노량진로6길,126.93585862453325,37.50964926053423,3.0,3.0,372901.29032258067,45304590.0
골목상권,1000737,대방동27길,126.92413603125908,37.503416369379046,4.0,4.0,355239.70967741933,45304590.0
골목상권,1000016,자하문로7길,126.97032788817815,37.57908494504986,24.333333333333332,24.333333333333332,264858.87096774194,1080980557.75
골목상권,1000557,강서로29길,126.83962317807557,37.5390926304854,3.0,4.0,404968.4516129032,45753766.75
골목상권,1000558,강서로35길,126.83617562763787,37.54267387376025,2.0,2.0,314940.4193548387,10504275.0625
발달상권,1001206,서대문구 서대문역_2,126.96533038633753,37.5654064785061,12.571428571428571,19.714285714285715,633099.4193548387,660908152.125
발달상권,1001207,서울 중구 신당역_2,127.01451101537104,37.56674415130659,13.571428571428571,16.857142857142858,784909.6129032258,434901847.8125
발달상권,1001208,서울 중구 을지로3가역_2,126.99183889984383,37.567375458126826,34.285714285714285,35.714285714285715,889851.0322580645,1647766789.3125
발달상권,1001252,서울 강북구 미아삼거리역_2,127.02881356920899,37.613241741161524,4.142857142857143,10.0,255498.93548387097,150218136.9375
발달상권,1001253,서울 은평구 연신내역_1,126.92072366711517,37.61799386836105,2.142857142857143,3.142857142857143,791187.7741935484,130991325.6875
발달상권,1001254,서울 은평구 연신내역_2,126.91919334022509,37.619110055177416,19.285714285714285,29.285714285714285,1493484.935483871,1479910929.625
발달상권,1001256,서울 강북구 수유역_1,127.0259905098279,37.63755102369121,12.0,17.571428571428573,347265.87096774194,1124241448.8125
발달상권,1001257,서울 강북구 수유역_2,127.02469928811556,37.638677532281505,20.571428571428573,27.571428571428573,1717037.9677419355,1238331568.5
발달상권,1001258,등나무근린공원 주변,127.06834390645679,37.64048932162238,4.0,9.142857142857142,55292.72727272727,407876239.9375
발달상권,1001073,서울 강남구 역삼역_1,127.03513580196903,37.49756094530639,55.714285714285715,80.71428571428571,1390115.8064516129,6057577473.75
발달상권,1001074,대림역_2,126.89136868065157,37.49823702924885,6.0,10.0,200560.48387096773,299299937.375
발달상권,1001075,역삼역_2,127.03984200001061,37.500992285393934,8.714285714285714,12.285714285714286,603223.1935483871,765453181.4375
발달상권,1001076,구로역,126.88282521165559,37.50169773583195,3.7142857142857144,8.285714285714286,293566.32258064515,482968371.5
발달상권,1001077,선릉역_1,127.04665136697915,37.50305309570303,18.0,31.285714285714285,763222.9032258064,1096038362.4375
발달상권,1001078,서울 강남구 강남역_2,127.02460858111792,37.500852279982624,38.142857142857146,69.28571428571429,2238262.9032258065,6813267791.6875
발달상권,1001079,석촌역,127.1067970648228,37.504599800535196,0.0,1.0,44612.16129032258,45304590.0
발달상권,1001080,서울 송파구 석촌역_1,127.10839285676943,37.505382221328844,0.5714285714285714,1.5714285714285714,113778.0,6214995.6875
발달상권,1001105,서울 동작구 노량진역,126.94413544871195,37.51287005026375,43.142857142857146,56.0,520977.4516129032,2406397925.3125
전통시장,1001453,낙성대시장,126.95614529124497,37.47818636029834,8.0,8.0,96223.64516129032,76114901.6875
전통시장,1001454,봉천제일종합시장,126.94513140169676,37.481146079112534,1.7142857142857142,1.7142857142857142,44504.354838709674,45304590.0
전통시장,1001474,도곡시장,127.05146536353854,37.497491889528554,2.0,2.0,141959.74193548388,45304590.0
전통시장,1001475,강남개포시장,127.06857899426316,37.4892209605042,2.0,2.0,24010.0,91598668.875
전통시장,1001412,화곡본동시장,126.84387997962435,37.543360059919365,1.0,1.0,111360.58064516129,45304590.0
전통시장,1001413,까치산시장,126.84718342094965,37.53260644735189,2.5714285714285716,5.142857142857143,643917.3225806452,260443947.875
전통시장,1001414,송화골목시장,126.8355499326782,37.549349400157496,2.0,4.571428571428571,204326.48387096773,117593068.0625
전통시장,1001452,중부시장,126.9561868577655,37.48444838766603,5.428571428571429,5.428571428571429,216181.38709677418,45560152.0
전통시장,1001415,방신전통시장,126.81249971700942,37.5714164710365,0.5714285714285714,0.5714285714285714,155859.25806451612,1779192.5416666667
전통시장,1001416,공항시장,126.80827778869678,37.56245380394414,1.0,1.0,50228.354838709674,16524479.875
전통시장,1001423,독산동 우시장,126.89656865609972,37.46689561401845,0.0,0.42857142857142855,98721.70967741935,45304590.0
전통시장,1001424,남문시장,126.90110393234676,37.47366608412182,0.8571428571428571,0.8571428571428571,167210.5806451613,45304590.0
전통시장,1001425,푸른터시장,126.90141469620585,37.478063270003425,3.0,3.0,30682.064516129034,45304590.0
전통시장,1001426,대명시장,126.90225984966358,37.454142131054965,0.0,0.0,29587.677419354837,45304590.0
전통시장,1001427,현대시장,126.90285502359515,37.457106953132225,1.1428571428571428,5.142857142857143,466517.0967741936,187916388.375
전통시장,1001428,박미시장,126.90511428958015,37.44018775231593,3.0,3.0,10714.516129032258,45304590.0
전통시장,1001429,은행나무시장,126.90955308248324,37.45130974656838,0.5714285714285714,3.4285714285714284,90461.48387096774,50937861.125
전통시장,1001470,강남시장_강남,127.02068927514331,37.51878302313745,0.0,0.0,41282.645161290326,45304590.0
전통시장,1001372,녹번시장,126.93111468202547,37.601016745086326,3.0,3.0,25796.451612903227,45304590.0
전통시장,1001373,신응암시장,126.91859746125807,37.59424233344807,2.0,3.857142857142857,60407.290322580644,13209447.416666668
전통시장,1001374,대림골목시장,126.91729187738939,37.587096559134146,2.4285714285714284,2.4285714285714284,153636.70967741936,12368816.5625
전통시장,1001480,새마을시장,127.0848726886618,37.50905053111977,7.285714285714286,7.571428571428571,430884.96774193546,112296528.1875
전통시장,1001440,노량진중앙시장,126.94466759306434,37.51214949746151,4.714285714285714,7.714285714285714,179926.03225806452,487266207.9375
전통시장,1001441,본동인정시장,126.95062862297279,37.51178272773113,4.142857142857143,4.142857142857143,114600.7741935484,24945516.0
전통시장,1001442,신노량진시장,126.93969378175139,37.50849799489977,3.0,3.0,21132.612903225807,45304590.0
전통시장,1001443,강남시장_동작,126.95338637006387,37.49692626946366,1.1428571428571428,1.1428571428571428,31883.0,77350985.8125
전통시장,1001444,상도전통시장,126.95211839196251,37.499160258075925,6.714285714285714,6.714285714285714,234013.0,81262653.5
전통시장,1001445,영도시장,126.94048883861987,37.50429070468034,0.0,0.0,31308.58064516129,45304590.0
전통시장,1001446,성대시장,126.93130958566624,37.49976267532012,1.0,2.0,41835.354838709674,45304590.0
전통시장,1001375,증산종합시장,126.9052406811303,37.58168154241062,0.0,0.0,9992.516129032258,45304590.0
전통시장,1001376,수일시장,126.89514009560585,37.58309657123012,0.0,0.0,21931.451612903227,45304590.0
전통시장,1001460,관악신사시장,126.9168492077524,37.48619322743413,1.1428571428571428,2.0,240133.38709677418,45304590.0
전통시장,1001461,신림종합시장,126.91706574140883,37.484652655765515,3.0,3.0,22518.548387096773,45304590.0
전통시장,1001462,강남골목시장,126.90482315982237,37.48267021970608,1.0,1.0,137262.12903225806,45304590.0
전통시장,1001463,신림중앙시장,126.91156103487882,37.483270120843244,0.0,0.0,27503.09677419355,45304590.0
전통시장,1001464,삼성동시장,126.93235351152966,37.47079586369997,3.0,3.0,166789.06451612903,45304590.0
전통시장,1001465,신신림시장,126.93207096293314,37.470723620775374,3.0,3.0,29683.935483870966,45304590.0
전통시장,1001466,미성동도깨비시장,126.91652327335214,37.47426363978532,0.42857142857142855,1.4285714285714286,147395.4516129032,32673389.375
전통시장,1001467,우림시장,126.92038259407276,37.47022076770739,3.0,3.0,28925.612903225807,45304590.0
전통시장,1001437,영진시장A동,126.91574783969705,37.50035627562966,1.0,2.0,38162.93548387097,11264103.25
전통시장,1001438,우리시장,126.90478250163052,37.49688808313275,3.0,3.0,114665.29032258065,45304590.0
전통시장,1001439,대림중앙시장,126.8993625214185,37.49085585548587,3.0,3.0,68268.06451612903,45304590.0
전통시장,1001417,구로시장,126.88535527454034,37.48899602857642,0.2857142857142857,0.2857142857142857,54558.354838709674,45304590.0
전통시장,1001418,남구로시장,126.88632600764929,37.49011421556487,4.857142857142857,4.857142857142857,339171.06451612903,6339130.3125
전통시장,1001419,가리봉시장,126.88934638801426,37.48157552865785,0.0,0.0,73116.35483870968,45304590.0
전통시장,1001420,고척근린시장,126.85047972168441,37.50227390723683,0.0,0.0,105158.41935483871,45304590.0
전통시장,1001421,개봉중앙시장,126.85382410663608,37.49229494899714,0.0,0.0,32703.064516129034,45304590.0
전통시장,1001422,오류시장,126.84320850019292,37.4965521062622,1.7142857142857142,2.0,35032.25806451613,89404312.8125
전통시장,1001476,풍납시장,127.11950472491671,37.53731203581922,0.0,0.0,312573.6129032258,45304590.0
전통시장,1001477,마천시장,127.15081258039989,37.49816368040745,1.0,1.0,194750.70967741936,45304590.0
전통시장,1001478,방이시장,127.11550426550131,37.511141909920795,5.0,9.714285714285714,523118.1612903226,245622679.375
전통시장,1001479,석촌시장,127.10675673425273,37.50010382025705,2.0,4.857142857142857,188449.7741935484,45304590.0
전통시장,1001396,목4동시장,126.8663621605051,37.53798164771059,1.0,1.0,128046.90322580645,45304590.0
전통시장,1001397,신영시장,126.8358121436197,37.53298762561853,3.4285714285714284,4.714285714285714,159104.83870967742,9586097.1875
전통시장,1001398,월정로시장,126.83410380550193,37.53295820818282,3.0,3.0,98129.2258064516,45304590.0
전통시장,1001447,상도4동도깨비골목시장,126.93739224199498,37.501613117638286,5.142857142857143,7.142857142857143,214068.61290322582,27154258.8125
전통시장,1001448,흑석시장,126.96334408978656,37.507291345048834,6.142857142857143,6.428571428571429,433454.6451612903,155641706.25
전통시장,1001449,남성사계시장,126.98083431710904,37.488230181096164,5.857142857142857,8.285714285714286,456908.4516129032,614466792.9375
골목상권,1000429,진흥로12길,126.9277342144779,37.607060366704275,2.4285714285714284,4.428571428571429,645288.0645161291,52541346.0625
관광특구,1001494,종로?청계 관광특구,126.9973738673892,37.56999760824763,90.57142857142857,135.57142857142858,5282970.483870967,6114158514.1875
골목상권,1000428,증산서길,126.90377107036376,37.58000450575789,1.0,1.0,210022.5806451613,41539312.9375
관광특구,1001495,잠실 관광특구,127.11527494608232,37.51647607488473,49.857142857142854,89.42857142857143,2110642.1612903224,9062873171.0625
관광특구,1001496,강남 마이스 관광특구,127.06005939988393,37.511002913176945,20.0,52.0,98875.19354838709,3762123073.9375
관광특구,1001491,이태원 관광특구,126.9943768625423,37.534435107014495,72.42857142857143,89.85714285714286,1746257.3548387096,5591881559.5
관광특구,1001492,명동 남대문 북창동 다동 무교동 관광특구,126.98185620077636,37.564148780123666,199.42857142857142,357.85714285714283,6509004.516129033,22888713901.4375
관광특구,1001493,동대문패션타운 관광특구,127.0110248333143,37.567312155725965,63.285714285714285,98.71428571428571,3019851.8387096776,4434285025.25
골목상권,1000430,진흥로1길,126.91871208747018,37.60336944901489,8.285714285714286,8.285714285714286,690503.9354838709,68725844.0625
골목상권,1000431,통일로69길,126.92571471010943,37.610708119369015,0.2857142857142857,0.2857142857142857,150670.7741935484,45304590.0
골목상권,1000056,두텁바위로1길,126.97457287097093,37.546839271986116,4.333333333333333,4.333333333333333,249822.5483870968,89804909.625
골목상권,1000229,동일로101길,127.07769398957878,37.588604623414525,3.857142857142857,4.714285714285714,434480.7419354839,30769924.0
골목상권,1000230,동일로112길,127.08320262607371,37.59397078080393,6.285714285714286,7.571428571428571,735775.6774193548,91237542.625
골목상권,1000757,상도로15길,126.93501551429384,37.50368414690677,6.571428571428571,9.571428571428571,502192.77419354836,96677553.125
골목상권,1000758,상도로37길,126.95088449592812,37.50104285410253,3.0,4.0,145879.93548387097,94957520.6875
골목상권,1000860,바우뫼로39길,127.03971848311485,37.481305314805525,8.857142857142858,9.857142857142858,331829.6129032258,534653874.625
골목상권,1000861,반포대로9길,127.00750739114912,37.482419993139004,5.857142857142857,6.857142857142857,240240.51612903227,159922185.1875
골목상권,1000526,목동중앙본로7길,126.86692477140046,37.539739232171726,2.5714285714285716,5.571428571428571,324120.87096774194,69056246.625
발달상권,1001183,서울 마포구 홍대입구역_2,126.92109352670089,37.55735732147435,14.142857142857142,18.142857142857142,285130.96774193546,1154483189.125
발달상권,1001184,서울 마포구 홍대입구역_3,126.92333446050796,37.557313747967584,8.0,12.142857142857142,675233.3870967742,972257534.1875
발달상권,1001185,서울 서대문구 신촌역,126.93691538021643,37.55757406448483,57.285714285714285,93.14285714285714,4043747.419354839,6378630490.75
발달상권,1001186,서울 서대문구 이대역,126.9445770033612,37.55815454767511,57.42857142857143,75.85714285714286,985400.9677419355,2982842756.1875
발달상권,1001187,한양시장,127.0401110047552,37.55986362680572,12.285714285714286,18.714285714285715,439121.2580645161,732926155.75
발달상권,1001188,장충동 족발거리,127.00534212594894,37.56025774806399,5.714285714285714,8.714285714285714,123492.90322580645,349337002.0625
발달상권,1001189,서울 중구 명동역,126.98500367628748,37.55970730840533,18.285714285714285,26.428571428571427,391803.6129032258,1331020393.3125
발달상권,1001190,장한평역,127.06094513612403,37.557025579911674,7.714285714285714,8.714285714285714,112687.2258064516,352963391.875
발달상권,1001192,서울 중구 충무로역_1,126.99606129257226,37.56066325181778,28.714285714285715,46.0,480249.5483870968,3072207007.6875
발달상권,1001199,서울 중구 충무로역_2,126.9927448740907,37.56280746670614,39.42857142857143,50.42857142857143,1005978.9032258064,1714944718.25
발달상권,1001200,북창동,126.97761208939609,37.562868636730556,18.428571428571427,38.0,481980.7419354839,1446969826.4375
발달상권,1001201,서울 중구 신당역_1,127.0177477768051,37.56469844803883,4.857142857142857,8.285714285714286,650690.9032258064,329019482.6875
발달상권,1001202,롯데백화점,126.9806676306135,37.56458106969132,13.142857142857142,23.857142857142858,650128.5483870967,2522419617.9375
발달상권,1001203,명동거리,126.98424475124476,37.562653468975135,56.142857142857146,107.85714285714286,1984639.6129032257,8573703484.875
발달상권,1001231,서울 동대문구 신설동역_2,127.02517659661547,37.57577934050503,10.714285714285714,13.142857142857142,462475.2580645161,191071550.3125
발달상권,1001232,서울 종로구 종로3가역_2,126.98977817114893,37.572096513877035,42.0,51.285714285714285,1330056.064516129,2606365154.625
골목상권,1000267,돌곶이로8길,127.06335320307329,37.60742588348046,0.0,0.0,256473.96774193548,45304590.0
골목상권,1000334,삼양로93길,127.01572596156568,37.63864303017881,2.2857142857142856,2.4285714285714284,285518.9032258064,20973663.8125
골목상권,1000354,덕릉로60길,127.04130792224095,37.63674477842654,4.714285714285714,4.714285714285714,355208.48387096776,8496534.8125
골목상권,1000355,도당로13가길,127.03717620496198,37.66671284257849,2.0,2.0,141466.61290322582,18475615.3125
골목상권,1000356,도당로13바길,127.03515902215479,37.66736216707682,3.5714285714285716,3.5714285714285716,290381.22580645164,45304590.0
골목상권,1000357,도당로19길,127.03960307518072,37.669252817345985,3.4285714285714284,3.4285714285714284,501947.32258064515,19470279.8125
골목상권,1000358,도당로29길,127.04239125677259,37.66902660318552,2.0,4.0,245595.5806451613,33656582.60416667
골목상권,1000364,도봉로156길,127.04542006560817,37.673097904789245,3.0,3.0,155858.61290322582,6097209.708333333
골목상권,1000365,도봉로169나길,127.04350697740028,37.67747738506909,2.0,4.571428571428571,172893.06451612903,66950545.8125
골목상권,1000366,도봉로181길,127.04373781480994,37.684495921126555,1.2857142857142858,3.5714285714285716,187614.87096774194,65871356.3125
골목상권,1000367,도봉산4길,127.04217594337709,37.68912751424592,3.0,4.0,17459.8064516129,77292177.625
골목상권,1000368,도봉산길,127.04253750691423,37.686956029127124,3.0,5.142857142857143,120774.41935483871,291317201.5625
골목상권,1000039,명동길,126.98661001352993,37.56426654449661,12.5,20.5,144654.03225806452,905596310.8125
골목상권,1000040,삼일대로4길,126.98954172783117,37.56298742572014,7.166666666666667,12.5,207348.25806451612,710967095.5
골목상권,1000662,독산로50길,126.90982200316428,37.46265369829355,2.0,2.0,168208.83870967742,10958661.9375
골목상권,1000835,청림3길,126.95901060703942,37.489765348462136,1.8571428571428572,4.0,516609.67741935485,48206265.3125
골목상권,1000836,행운1길,126.95656147834477,37.481853621125296,7.428571428571429,7.428571428571429,558759.3548387097,49625292.625
골목상권,1000527,목동중앙북로16길,126.8737171287499,37.544440896564765,3.0,3.0,325665.0967741936,45304590.0
골목상권,1000528,목동중앙북로8길,126.86456985259905,37.546773355991704,3.142857142857143,3.142857142857143,224076.90322580645,7039465.875
골목상권,1000288,오패산로4길,127.0396136713204,37.60384128986315,7.428571428571429,11.142857142857142,558951.1290322581,167464168.5625
골목상권,1000315,노해로17길,127.02045104169558,37.64044427527613,1.0,1.0,273131.0,13652513.6875
골목상권,1000316,노해로23길,127.02161928375925,37.64468770301958,2.5714285714285716,3.2857142857142856,190263.96774193548,45304590.0
골목상권,1000106,성덕정17길,127.05733051112871,37.53661075646308,8.833333333333334,8.833333333333334,516674.96774193546,89329839.6875
골목상권,1000107,성덕정길,127.04803152510412,37.538984535413164,4.666666666666667,5.666666666666667,242665.09677419355,7499531.520833333
골목상권,1000108,성수이로18길,127.05986919094289,37.541907376688,9.166666666666666,10.166666666666666,198298.32258064515,189920708.375
골목상권,1000522,목동로9길,126.86306243564994,37.52332759499309,16.428571428571427,21.142857142857142,649386.7096774194,384453205.0625
골목상권,1000523,목동중앙남로3가길,126.86462951836363,37.53880859388889,3.0,4.0,366850.87096774194,26994930.3125
골목상권,1000524,목동중앙로13나길,126.88081092016019,37.54515104884121,3.0,3.0,83518.35483870968,10053425.125
골목상권,1000525,목동중앙로3길,126.86849031449037,37.537416407019954,0.0,2.0,285834.8387096774,27414992.9375
골목상권,1000753,사당로29길,126.97775951288064,37.48569780952257,4.0,4.714285714285714,242922.93548387097,51475846.5625
골목상권,1000842,원신길,126.93023235877796,37.46637967766215,3.2857142857142856,3.2857142857142856,227258.29032258064,45304590.0
골목상권,1000843,소담길,126.94290660614242,37.47784733154067,0.2857142857142857,0.8571428571428571,301149.5806451613,45304590.0
골목상권,1000658,금하로24길,126.90841545320572,37.44816433333511,3.0,3.0,204769.67741935485,16854385.8125
골목상권,1000659,남부순환로112길,126.89359179590627,37.47763300963266,2.857142857142857,2.857142857142857,248022.09677419355,620166.5
골목상권,1000660,독산로108길,126.90739346743642,37.47961784276154,1.2857142857142858,3.4285714285714284,326442.8387096774,49654387.9375
골목상권,1000661,독산로40길,126.90667104209585,37.46050684398225,2.2857142857142856,3.2857142857142856,311306.5806451613,52055384.4375
골목상권,1000171,답십리로23길,127.05094355408913,37.578275797131816,2.857142857142857,2.857142857142857,513657.9032258064,5794202.25
골목상권,1000172,답십리로56길,127.05849933977825,37.56996512379338,2.0,2.0,634960.1290322581,10535166.125
골목상권,1000173,답십리로60길,127.06306047052843,37.56920593947188,1.0,1.0,105886.3870967742,45304590.0
골목상권,1000174,답십리로63길,127.06874855342537,37.5754466587781,0.2857142857142857,0.2857142857142857,168728.38709677418,45304590.0
골목상권,1000197,장한로26가길,127.07039479483382,37.568508027548404,2.142857142857143,2.142857142857143,138964.12903225806,45304590.0
골목상권,1000198,장한로26길,127.0745854703162,37.57104626101179,5.0,8.0,472416.9032258064,154826998.25
골목상권,1000199,장한로27가길,127.07070676158624,37.57522025354092,1.0,1.0,175027.35483870967,45304590.0
골목상권,1000200,장한로27길,127.06942580898604,37.57332892517214,1.5714285714285714,3.7142857142857144,311082.5806451613,55037750.4375
골목상권,1000150,면목로17길,127.0812849319312,37.56939301719116,3.0,4.428571428571429,632368.1935483871,24817316.4375
골목상권,1000151,아차산로40길,127.0779903195285,37.536184459427616,2.4285714285714284,2.4285714285714284,308993.0,32082824.375
골목상권,1000770,여의대방로22길,126.92452692869207,37.49708254841206,0.0,0.0,171995.09677419355,45304590.0
골목상권,1000771,여의대방로22나길,126.92206213192026,37.496639454893256,3.142857142857143,4.142857142857143,202723.0,73244735.375
골목상권,1000772,여의대방로22카길,126.92661988515128,37.496182860544366,1.4285714285714286,2.4285714285714284,306285.93548387097,60286617.375
골목상권,1000773,여의대방로24길,126.92350751754007,37.49869469391353,5.571428571428571,5.571428571428571,306478.4516129032,105217690.5625
골목상권,1000633,구로중앙로19길,126.88866101936652,37.49390967822302,3.857142857142857,3.857142857142857,217664.48387096773,359636206.875
골목상권,1000872,서초대로4길,126.9853468157354,37.48346449312948,5.142857142857143,7.142857142857143,385251.96774193546,98765703.64583333
골목상권,1000873,서초대로64길,127.02101020541649,37.493410660680794,0.0,1.0,282605.93548387097,45304590.0
골목상권,1000176,답십리로68길,127.068211163444,37.56959951382214,2.142857142857143,4.142857142857143,327994.8064516129,118218076.4375
골목상권,1000177,답십리로69길,127.07307338608646,37.575912577998345,6.714285714285714,8.714285714285714,272084.4516129032,217346653.375
골목상권,1000178,답십리로72길,127.07208124072096,37.56837186060303,6.428571428571429,6.428571428571429,253193.1935483871,67828673.0
골목상권,1000179,망우로18가길,127.06038070920854,37.586866824020035,6.857142857142857,6.857142857142857,280418.4193548387,60944497.875
골목상권,1000180,망우로18길,127.06163890939814,37.588623109211575,8.142857142857142,8.428571428571429,447152.5806451613,314992870.375
골목상권,1000181,망우로21길,127.0612327957813,37.59044332502572,3.857142857142857,4.857142857142857,171440.0,149605323.0
골목상권,1000183,무학로45길,127.02832535003661,37.58021151828,1.0,1.0,406314.77419354836,45304590.0
골목상권,1000184,사가정로13길,127.05904968417452,37.57883964682495,3.142857142857143,4.857142857142857,250762.70967741936,84125548.0625
골목상권,1000185,사가정로23가길,127.0710509769168,37.58006739496743,5.0,7.142857142857143,319978.87096774194,218284978.125
골목상권,1000186,사가정로2길,127.0530426888096,37.56906670616811,0.0,0.0,271613.96774193546,45304590.0
골목상권,1000187,서울시립대로16길,127.05379670314815,37.578707008503656,1.7142857142857142,1.7142857142857142,444391.51612903224,45304590.0
골목상권,1000188,서울시립대로29길,127.0546963036201,37.58588751275382,4.285714285714286,6.285714285714286,1117939.1612903227,76997124.3125
골목상권,1000347,한천로124나길,127.03098716938862,37.63809941803449,4.0,4.285714285714286,483229.8387096774,45304590.0
골목상권,1000222,겸재로29길,127.08622084620522,37.58958078442301,3.142857142857143,4.0,531516.8064516129,60260476.0
골목상권,1000223,겸재로36길,127.08619490757957,37.586724657530496,3.857142857142857,3.857142857142857,438226.4516129032,11243350.1875
골목상권,1000224,겸재로54길,127.09135827151533,37.587135230742064,3.0,4.0,528283.3548387097,20889451.5625
골목상권,1000329,삼양로24길,127.02344630499515,37.61738747652263,0.42857142857142855,0.42857142857142855,607297.4516129033,45304590.0
골목상권,1000232,동일로130길,127.08232598119245,37.599926946387306,2.5714285714285716,2.5714285714285716,426648.77419354836,19507625.3125
골목상권,1000233,동일로139가길,127.07798267735807,37.60484930281732,5.0,7.0,478001.3548387097,220211991.9375
골목상권,1000234,동일로139길,127.07616868735616,37.60286830942322,0.0,0.0,255993.4516129032,45304590.0
골목상권,1000634,구로중앙로28길,126.8879168952626,37.49999977609888,4.0,5.571428571428571,456042.5806451613,51132431.1875
골목상권,1000635,구로중앙로34길,126.88626338473544,37.501583965443814,0.0,0.0,275117.8387096774,45304590.0
골목상권,1000119,왕십리로31길,127.02820592031425,37.563723336738825,4.0,6.0,621461.0967741936,78199624.0
골목상권,1000120,왕십리로6길,127.04673478907152,37.54614800204811,19.833333333333332,25.666666666666668,620852.0967741936,436643245.875
골목상권,1000121,용답29길,127.05375284511231,37.564939824315275,3.3333333333333335,5.5,467415.70967741933,127788436.9375
골목상권,1000122,용답중앙길,127.05067478128461,37.56588723144022,1.0,1.0,192017.35483870967,18355817.875
골목상권,1000123,장터길,127.0186944490346,37.54828212797034,4.5,6.666666666666667,229335.74193548388,130486019.0625
골목상권,1000182,무학로16길,127.03208008759509,37.57120962246717,1.4285714285714286,1.4285714285714286,173977.87096774194,87444456.9375
골목상권,1000341,오패산로52길,127.03231872732951,37.62571050457308,0.0,0.0,512345.06451612903,45304590.0
골목상권,1000226,공릉로2길,127.07923566963495,37.61169598721768,2.142857142857143,2.4285714285714284,661791.2580645161,74739059.75
골목상권,1000227,답십리로75길,127.08155076069042,37.57442038535341,1.0,1.5714285714285714,319268.6129032258,10954808.625
골목상권,1000248,면목로78길,127.08967642136246,37.59142524325744,2.857142857142857,2.857142857142857,782071.9354838709,45304590.0
골목상권,1000249,봉우재로33길,127.08794761096189,37.59446288587133,9.714285714285714,9.714285714285714,462416.77419354836,92052946.75
골목상권,1000251,봉화산로4길,127.07565590943814,37.599733192563036,2.142857142857143,3.2857142857142856,431800.7419354839,45304590.0
골목상권,1000252,봉화산로56길,127.09747348397731,37.605465507361494,8.857142857142858,12.714285714285714,694177.7419354839,496839723.875
골목상권,1000253,사가정로42길,127.0827669976751,37.57891549974159,2.2857142857142856,2.2857142857142856,395979.9032258064,45304590.0
골목상권,1000254,사가정로54길,127.08851822568079,37.57910053594263,4.428571428571429,6.285714285714286,455800.48387096776,320251212.875
골목상권,1000255,신내로7가길,127.0935962611825,37.60218904258548,3.0,3.0,406315.70967741933,15361534.25
골목상권,1000363,도봉로152가길,127.04568222735578,37.675467379316665,3.142857142857143,4.142857142857143,92747.67741935483,47375531.875
골목상권,1000235,동일로140길,127.08041736496868,37.60471252047306,7.714285714285714,8.428571428571429,284903.1612903226,32716890.145833332
골목상권,1000236,동일로149길,127.07479103053134,37.60679750641733,2.857142857142857,2.857142857142857,230336.38709677418,16712814.3125
골목상권,1000237,동일로157길,127.07700278771155,37.610057665403176,6.285714285714286,8.428571428571429,545713.4193548387,45304590.0
골목상권,1000654,가산로3길,126.89055967610648,37.47140426383428,4.0,4.0,110971.29032258065,20664787.875
골목상권,1000655,가산로5길,126.89225281013455,37.47318981952748,7.857142857142857,7.857142857142857,310115.8064516129,35231472.875
골목상권,1000656,금하로14길,126.90432016043654,37.45152186917577,3.4285714285714284,3.7142857142857144,217790.5806451613,45304590.0
골목상권,1000657,금하로1길,126.89090265267811,37.45320414950866,1.7142857142857142,1.7142857142857142,221036.7741935484,45304590.0
골목상권,1000124,청계천로10나길,127.03549836462217,37.570622997203614,4.0,6.0,411698.9032258064,90016901.6875
골목상권,1000077,한강대로104길,126.9742434938409,37.55036210539663,12.166666666666666,16.166666666666668,352670.87096774194,280164297.125
골목상권,1000078,한강대로15길,126.96340274639695,37.52614035691027,4.166666666666667,4.166666666666667,171626.5483870968,130507975.9375
골목상권,1000102,사근동길,127.04580441680068,37.560609382692896,8.166666666666666,8.166666666666666,265487.32258064515,134853394.6875
골목상권,1000103,상원12길,127.04849159416436,37.55052614710572,8.666666666666666,8.666666666666666,293543.03225806454,55331579.3125
골목상권,1000104,상원길,127.049712313555,37.54830918321684,13.5,23.833333333333332,394971.3870967742,408607721.125
골목상권,1000105,서울숲2길,127.04246916012495,37.5469875422686,35.166666666666664,36.166666666666664,501572.8064516129,382625265.25
골목상권,1000250,봉화산로30길,127.08510083713035,37.600330423961964,3.0,3.0,742588.5483870967,45304590.0
골목상권,1000936,학동로38길,127.03428332775769,37.51282422538028,8.571428571428571,13.142857142857142,375342.5483870968,333400924.5625
골목상권,1000609,개봉로11길,126.85360604021459,37.488150047468245,3.142857142857143,3.142857142857143,235012.4516129032,18659539.125
골목상권,1000610,개봉로17길,126.85296620024447,37.491537038862276,0.0,0.0,390315.12903225806,45304590.0
골목상권,1000505,토정로37길,126.94327662843149,37.54168367978505,5.285714285714286,6.285714285714286,222466.4193548387,204500134.4375
골목상권,1000506,효창원로93길,126.96085733573693,37.54779959075826,4.0,5.0,693401.1290322581,122858471.875
골목상권,1000974,동남로65길,127.15460192163133,37.547957148510996,8.285714285714286,8.285714285714286,173939.93548387097,97359463.25
골목상권,1000739,동작대로17길,126.97942223598494,37.48342756947013,6.714285714285714,8.714285714285714,376917.77419354836,325905521.75
골목상권,1000740,동작대로29길,126.97815440887648,37.48859011911733,2.857142857142857,3.857142857142857,207295.64516129033,55518858.75
골목상권,1000741,동작대로33길,126.98069816024963,37.49005920470789,3.7142857142857144,4.714285714285714,481466.4516129032,87161959.875
골목상권,1000742,동작대로35길,126.97939722543985,37.4921583324091,1.1428571428571428,1.2857142857142858,375084.70967741933,29503151.625
골목상권,1000743,동작대로7길,126.97845130330151,37.47847184675797,9.142857142857142,11.0,682376.3870967742,119203195.75
골목상권,1000744,등용로14길,126.93394536284316,37.51169348596874,5.714285714285714,6.714285714285714,295679.1935483871,231455696.8125
골목상권,1000844,강남대로23길,127.03692313524903,37.47575600377199,12.142857142857142,13.857142857142858,190522.93548387097,396389946.5
골목상권,1000712,선유서로25길,126.88375131049136,37.524385922645855,9.714285714285714,12.571428571428571,209719.7741935484,191210334.4375
골목상권,1000511,곰달래로5길,126.83173557945085,37.53456764758405,2.0,2.857142857142857,287754.48387096776,9084267.8125
골목상권,1000512,남부순환로33길,126.83087928776604,37.53799022272755,1.0,1.0,304735.9032258064,14155184.0
골목상권,1000513,남부순환로40길,126.82746018782478,37.533975828625294,1.0,1.8571428571428572,249864.87096774194,63791124.3125
골목상권,1000514,남부순환로58길,126.83047739046283,37.5305924376686,5.571428571428571,7.571428571428571,135595.29032258064,42148574.4375
골목상권,1000515,남부순환로70길,126.83460059506345,37.52317403571121,1.7142857142857142,3.7142857142857144,310145.5483870968,74525036.125
골목상권,1000516,남부순환로79길,126.84166306118632,37.516164907660446,5.285714285714286,6.142857142857143,283515.22580645164,45304590.0
골목상권,1000922,삼성로69길,127.05706604455409,37.50134562294794,10.285714285714286,10.285714285714286,523557.1935483871,152867800.0625
골목상권,1000923,삼성로75길,127.05603827126373,37.50316614641637,6.428571428571429,9.0,620549.7741935484,124415398.6875
골목상권,1000924,선릉로121길,127.04094589237938,37.51364201738336,10.285714285714286,10.285714285714286,217777.12903225806,277494440.8125
골목상권,1000925,선릉로132길,127.04401417298666,37.51874059417037,11.0,13.0,510490.48387096776,35818766.5625
골목상권,1000926,선릉로133길,127.03812042026154,37.51812996119668,10.285714285714286,11.285714285714286,811754.4516129033,266278824.25
골목상권,1000927,선릉로146길,127.04376752403279,37.52252489801451,8.571428571428571,10.285714285714286,606968.0645161291,584973705.1875
골목상권,1000597,양천로73가길,126.87486100742207,37.550613952666644,5.571428571428571,5.571428571428571,391212.93548387097,140974075.5625
골목상권,1000799,남부순환로234길,126.95776242309152,37.477439111595785,10.857142857142858,10.857142857142858,334198.87096774194,145395784.125
골목상권,1000471,마포대로12길,126.9547016029911,37.54735590033695,6.428571428571429,10.428571428571429,185320.38709677418,413470047.8125
골목상권,1000472,마포대로20길,126.95739259068313,37.55130327549424,3.0,5.0,663392.2580645161,289223786.9375
골목상권,1001006,천호대로197길,127.14749852909215,37.53808227877936,2.4285714285714284,3.4285714285714284,457525.29032258067,65939092.0625
골목상권,1001007,천호대로219길,127.17171081211951,37.54743795968647,12.428571428571429,12.714285714285714,250463.67741935485,67136189.9375
골목상권,1001008,천호옛14길,127.12467353262433,37.536135392119114,6.142857142857143,6.142857142857143,435278.0,352623495.5
골목상권,1001009,천호옛길,127.12360629191559,37.533902033448086,8.0,8.0,1165528.4838709678,76411027.875
골목상권,1001010,풍성로37가길,127.1283449649351,37.53277973804337,4.428571428571429,4.857142857142857,510542.87096774194,31559777.3125
골목상권,1000787,국회단지길,126.94119091350738,37.48874869358056,0.8571428571428571,0.8571428571428571,717519.1612903225,45304590.0
골목상권,1000543,중앙로32길,126.86104155114711,37.52114480969574,6.0,9.0,331486.4516129032,219889894.25
골목상권,1000564,강서로5나길,126.84210073963199,37.52854525851174,2.142857142857143,2.142857142857143,766813.9032258064,45304590.0
골목상권,1000565,강서로5라길,126.85440692631573,37.52990356182328,0.0,1.0,432776.5806451613,45304590.0
골목상권,1000566,강서로8길,126.85026673057511,37.52963709501543,3.0,4.428571428571429,841783.3870967742,171703289.125
골목상권,1000567,개화동로23길,126.80868723570073,37.56610349784224,2.142857142857143,3.142857142857143,425726.06451612903,43975071.0625
골목상권,1000568,개화동로25길,126.80833011005501,37.564120729902115,1.0,1.0,387150.12903225806,45304590.0
골목상권,1000569,곰달래로25길,126.84871180904096,37.532103854982104,4.285714285714286,5.428571428571429,301368.29032258067,94995202.3125
골목상권,1000730,영등포로80길,126.91999888417823,37.512027245087346,2.0,2.0,461147.4193548387,16525535.75
골목상권,1000794,난향길,126.91688638021704,37.46283908026488,1.7142857142857142,1.7142857142857142,150135.87096774194,45304590.0
골목상권,1000795,남부순환로142길,126.91303438960126,37.4802348153703,2.142857142857143,5.142857142857143,275176.9032258064,76297159.375
골목상권,1000796,남부순환로151길,126.91590237986556,37.48356161337909,2.857142857142857,3.857142857142857,687999.2903225806,33201376.1875
골목상권,1000797,남부순환로161길,126.9196442915453,37.48405977215567,6.857142857142857,7.857142857142857,300082.22580645164,14024769.5625
골목상권,1000798,남부순환로172길,126.92143243386931,37.48243014944444,4.428571428571429,4.428571428571429,341783.8064516129,45304590.0
골목상권,1000955,송이로23길,127.1259415811924,37.496246640166866,5.571428571428571,5.571428571428571,594526.2903225806,66311372.25
골목상권,1000782,관악로28길,126.95856094823996,37.48498984923107,4.142857142857143,5.142857142857143,268787.1612903226,50783991.375
골목상권,1000783,관악로30길,126.9589558742335,37.486467640611004,5.428571428571429,7.428571428571429,385235.48387096776,66965325.5
골목상권,1000784,관천로15길,126.9201722481057,37.48730375915679,2.0,2.0,490515.5483870968,45304590.0
골목상권,1000785,관천로22길,126.92463719748999,37.488631173015754,3.2857142857142856,6.142857142857143,439146.3548387097,111750453.875
골목상권,1000889,개포로17길,127.04695373653372,37.48022145028157,5.428571428571429,5.428571428571429,465896.5483870968,33690199.4375
골목상권,1000890,개포로20길,127.04748312205031,37.4770677061371,3.857142857142857,3.857142857142857,280876.6451612903,189483315.8125
골목상권,1000747,사당로16가길,126.97049027938027,37.48304725258045,2.2857142857142856,2.4285714285714284,361882.7419354839,73699286.0
골목상권,1000442,세무서길,126.94646653283844,37.59052815738706,4.428571428571429,5.428571428571429,607689.7741935484,19635971.0625
골목상권,1000959,양재대로62길,127.11827739033224,37.49808360438827,11.142857142857142,11.142857142857142,297428.77419354836,222710135.9375
골목상권,1000960,양재대로64길,127.12207881214849,37.49913391400389,11.142857142857142,15.142857142857142,536137.0322580645,126159885.75
골목상권,1000961,양재대로71길,127.1255471729132,37.510582050134346,10.285714285714286,14.142857142857142,467712.93548387097,388857529.75
골목상권,1000962,양재대로72길,127.12862175099153,37.509479517368504,6.142857142857143,10.428571428571429,405923.5483870968,763822428.3125
골목상권,1000963,오금로11길,127.11162723174702,37.51283051464797,8.714285714285714,11.714285714285714,567559.4193548387,256292889.4375
골목상권,1000964,오금로36길,127.12502329265395,37.501644639853374,10.571428571428571,12.0,427810.22580645164,385549407.125
골목상권,1000665,독산로78다길,126.90434158807216,37.47019085060436,1.7142857142857142,2.7142857142857144,461478.9032258064,45304590.0
골목상권,1000941,동남로20길,127.1350224910562,37.496398791384294,6.571428571428571,8.857142857142858,989456.8387096775,355033965.0
골목상권,1000942,마천로51길,127.15181636854365,37.49683791633888,3.0,3.857142857142857,441122.12903225806,54644627.5625
골목상권,1000943,백제고분로21길,127.09079514621061,37.50562230939844,11.285714285714286,13.285714285714286,554469.2903225806,190298665.75
골목상권,1000944,백제고분로22길,127.08830280990712,37.502074238065035,9.0,10.285714285714286,576633.4193548387,94100059.0625
골목상권,1000945,백제고분로31길,127.09505799073457,37.50487112179878,12.857142857142858,15.428571428571429,932839.7096774194,510788829.25
골목상권,1000946,백제고분로32길,127.09440762096847,37.5003305761075,7.857142857142857,8.857142857142858,544944.5806451613,135317169.5625
골목상권,1000956,송이로32길,127.12675413397601,37.48857820404382,10.285714285714286,11.285714285714286,610800.2580645161,204298132.875
골목상권,1000957,송이로36길,127.12538957311503,37.48397551102138,8.714285714285714,9.714285714285714,645247.5483870967,279218789.6875
골목상권,1000958,송파대로30길,127.12040011809141,37.49602716621824,11.0,15.571428571428571,685141.3548387097,469747660.8125
골목상권,1000467,동교로19길,126.91700706890093,37.55807531741908,10.428571428571429,10.428571428571429,349739.8387096774,211474252.0
골목상권,1000468,동교로25길,126.91966579527917,37.55895112338144,16.0,17.285714285714285,233152.96774193548,1115272785.625
골목상권,1000469,동교로27길,126.9211692664366,37.560664030612564,30.0,31.0,458319.12903225806,1012491331.375
골목상권,1000591,양천로14길,126.80934235042974,37.57108705631895,2.5714285714285716,3.0,330359.0,6591260.0
골목상권,1000748,사당로16길,126.97204008280603,37.480831147704706,2.2857142857142856,3.2857142857142856,559935.4838709678,17957161.9375
골목상권,1000749,사당로20길,126.97569184173015,37.481147308579125,2.0,3.0,264058.5806451613,45304590.0
골목상권,1000750,사당로23길,126.97264763480986,37.488994426069816,1.4285714285714286,1.4285714285714286,280969.22580645164,45304590.0
골목상권,1000751,사당로23나길,126.97518111723743,37.48703979822581,1.0,1.0,166535.06451612903,45304590.0
골목상권,1000852,논현로27길,127.04114169347028,37.47881804265326,15.0,16.0,336950.48387096776,311337023.375
골목상권,1000931,영동대로112길,127.06277781895304,37.51562364995351,6.428571428571429,11.857142857142858,581837.6451612903,238737077.25
골목상권,1000932,영동대로65길,127.06235983986257,37.502676435448144,5.0,7.0,316854.8064516129,766158005.6875
골목상권,1000933,일원로3길,127.0842437390521,37.49285990847299,6.571428571428571,8.571428571428571,261994.8064516129,267957863.3125
골목상권,1000978,상암로14길,127.12824640463313,37.54789861453396,3.142857142857143,3.2857142857142856,653325.9677419355,71665772.375
골목상권,1000979,상암로4길,127.12572370145827,37.548378856521865,9.428571428571429,12.0,425212.3870967742,94732137.6875
골목상권,1000980,상암로51길,127.14543568765576,37.54789671418942,15.0,17.857142857142858,360083.6129032258,566318104.75
골목상권,1000981,상암로5길,127.1278021266924,37.55280052449069,4.857142857142857,5.285714285714286,479244.4193548387,147858590.875
골목상권,1000982,상일로5길,127.17085525307012,37.54939436568936,2.142857142857143,2.142857142857143,158292.09677419355,7405885.125
골목상권,1000983,성내로5길,127.12326271834269,37.53137959089851,11.0,13.428571428571429,683638.0645161291,269634245.75
골목상권,1000697,대림로7길,126.90403473668073,37.48914782911819,0.7142857142857143,0.7142857142857143,146828.96774193548,8162529.270833333
골목상권,1000698,대림로8길,126.90595433618377,37.49125772985235,1.2857142857142858,3.0,580249.5161290322,45304590.0
골목상권,1000603,화곡로13길,126.83305508023177,37.54155226492106,5.428571428571429,6.428571428571429,347745.5483870968,108994843.125
골목상권,1000488,신촌로12길,126.932198442708,37.554787368142655,21.285714285714285,21.285714285714285,422427.4193548387,439402850.3125
골목상권,1000489,신촌로28가길,126.95020339547287,37.5559406013126,0.5714285714285714,1.5714285714285714,280991.06451612903,4951249.5
골목상권,1000490,신촌로30길,126.95240995740212,37.5564640898275,1.0,1.0,255705.2258064516,45304590.0
골목상권,1000491,양화로11길,126.9157006177049,37.55238909811381,14.857142857142858,15.857142857142858,267350.0,888703116.5
골목상권,1000507,가로공원로58길,126.82541440520858,37.533089842065635,3.0,3.0,203987.61290322582,45304590.0
골목상권,1000508,곰달래로10길,126.83808563513176,37.528035261661856,2.142857142857143,3.142857142857143,341778.03225806454,36866750.75
골목상권,1000509,곰달래로2길,126.83508818679427,37.527787843969605,1.0,1.0,298933.9032258064,45304590.0
골목상권,1000592,양천로24가길,126.81362944100913,37.57231925381025,1.5714285714285714,2.5714285714285716,366165.48387096776,38580519.9375
골목상권,1000593,양천로24길,126.81527604573724,37.570204505877314,4.714285714285714,4.857142857142857,457101.32258064515,22995129.5625
골목상권,1000594,양천로26길,126.82244842454912,37.571981459206654,6.142857142857143,6.142857142857143,150360.06451612903,91123589.3125
골목상권,1000595,양천로49길,126.84025660970605,37.570997785646874,5.0,7.142857142857143,143469.8064516129,62207267.3125
골목상권,1000596,양천로71길,126.87323809793509,37.55335125426155,2.0,4.0,502194.6451612903,90204929.6875
골목상권,1000921,삼성로64길,127.0631951756804,37.5008289298123,3.0,3.2857142857142856,339531.03225806454,52768921.625
골목상권,1000934,일원로9길,127.0845238366623,37.49055313013716,6.428571428571429,7.428571428571429,630115.2580645161,108511881.0625
골목상권,1000935,테헤란로81길,127.05677902087957,37.51060809364278,12.857142857142858,16.714285714285715,249627.61290322582,773162705.0
골목상권,1000968,고덕로10길,127.12945441068602,37.55280773450696,5.857142857142857,6.857142857142857,351896.51612903224,203009073.8125
골목상권,1000969,고덕로25길,127.13477822431202,37.5555047691901,1.0,3.142857142857143,60252.096774193546,106550177.125
골목상권,1000970,고덕로61길,127.1515927855899,37.5596109422656,3.7142857142857144,5.428571428571429,106985.0,45304590.0
골목상권,1000971,구천면로36길,127.13392892492763,37.542576414505184,2.0,2.0,332182.8387096774,45304590.0
골목상권,1000972,구천면로41길,127.1318095211643,37.547056762531064,5.285714285714286,6.142857142857143,676578.3548387097,59683210.375
골목상권,1000973,구천면로42길,127.13643385521179,37.54489812377455,3.7142857142857144,4.714285714285714,724471.6129032258,77858938.25
골목상권,1000718,신길로60길,126.91333563558014,37.51306770877023,1.0,2.0,599176.0322580645,4560773.270833333
골목상권,1000719,양평로19길,126.89499139193177,37.53579411539009,13.714285714285714,21.857142857142858,402800.3870967742,706341515.25
골목상권,1000720,양평로22라길,126.89430699942264,37.53971285464334,7.285714285714286,9.285714285714286,212663.2258064516,125383441.5
골목상권,1000721,양평로28길,126.89069468032227,37.54166473514251,6.142857142857143,6.142857142857143,214211.67741935485,45304590.0
골목상권,1000722,여의대방로35길,126.91868685199033,37.50158370298455,4.857142857142857,4.857142857142857,512150.9032258064,5252409.3125
골목상권,1000723,여의대방로39길,126.92043792166326,37.503332846035,1.0,1.7142857142857142,149663.90322580645,7434646.6875
골목상권,1000476,망원로2길,126.9028981646755,37.55475789748673,15.285714285714286,17.0,549473.9677419355,124369190.3125
골목상권,1000477,매봉산로2길,126.89561263001684,37.577114393303276,33.42857142857143,34.142857142857146,447195.29032258067,1322357938.75
골목상권,1000880,효령로23길,126.99305788443199,37.48285251191834,6.285714285714286,6.285714285714286,506927.1935483871,53905290.375
골목상권,1000881,효령로31길,126.9941318450921,37.48470864786431,8.857142857142858,8.857142857142858,216654.87096774194,210680155.75
골목상권,1000882,효령로34길,127.00005652971377,37.479969487152786,6.142857142857143,6.428571428571429,184442.87096774194,87818641.875
골목상권,1000883,효령로72길,127.02735154392106,37.48674190637515,7.857142857142857,7.857142857142857,325358.6451612903,226729374.5
골목상권,1000884,방배중앙로21길,126.98462149333812,37.491798725026364,3.857142857142857,5.714285714285714,264561.2580645161,101135375.4375
골목상권,1000879,청두곶길,126.98560763358313,37.479455035347165,6.285714285714286,6.285714285714286,466579.2580645161,124843965.625
골목상권,1000885,서초중앙로8길,127.01985521859461,37.48746421045257,10.0,10.571428571428571,419441.48387096776,573451118.0625
골목상권,1000704,도신로29길,126.90541111585652,37.509547712767734,3.7142857142857144,3.7142857142857144,274300.96774193546,45304590.0
골목상권,1000510,곰달래로3길,126.83312295004507,37.531407105892995,4.571428571428571,5.428571428571429,444978.4193548387,18109495.9375
골목상권,1000999,진황도로27길,127.13374176346099,37.53915282952503,4.0,6.0,994801.9032258064,54270918.0625
골목상권,1000681,시흥대로84길,126.9022394935645,37.46109792886518,3.0,3.0,476992.6129032258,45304590.0
골목상권,1000682,시흥대로94길,126.90016710006587,37.46405151398749,4.714285714285714,5.714285714285714,376574.2580645161,15825518.0625
골목상권,1000895,논현로10길,127.04950553493379,37.4751387153593,2.857142857142857,5.857142857142857,247441.4193548387,373159404.3125
골목상권,1000896,논현로115길,127.03117093942068,37.508275015115785,11.428571428571429,12.714285714285714,820578.3548387097,192018471.25
골목상권,1000897,논현로123길,127.0284687302283,37.51072642990842,1.1428571428571428,1.1428571428571428,187258.0,45304590.0
골목상권,1000473,마포대로4길,126.94686633755153,37.53777500976483,4.0,6.0,258802.38709677418,128995956.4375
골목상권,1000474,만리재옛길,126.95768824607461,37.54878959625199,5.0,5.0,523417.3548387097,183933481.4375
골목상권,1000475,망원로11길,126.90557438755731,37.55948129270431,7.571428571428571,7.571428571428571,309214.22580645164,278330973.3125
골목상권,1000786,구암길,126.94696775162885,37.49040928190285,1.5714285714285714,1.5714285714285714,397156.4516129032,7951901.5625
골목상권,1000904,도곡로37길,127.04319748350869,37.495224665413865,17.714285714285715,18.714285714285715,771506.2580645161,455730537.5
골목상권,1000905,도산대로15길,127.02437751249784,37.52060234574617,10.714285714285714,10.714285714285714,128151.03225806452,562561299.5
골목상권,1000598,우장산로6길,126.83892559656644,37.55303913248782,2.7142857142857144,4.857142857142857,847045.8064516129,21965527.9375
골목상권,1000599,월정로20길,126.84069573429778,37.52956150256638,3.0,4.0,463086.67741935485,49608760.3125
골목상권,1000600,초록마을로3길,126.84694028202016,37.54639142098713,1.1428571428571428,2.142857142857143,608252.4193548387,45304590.0
골목상권,1000601,초록마을로8길,126.84895448982283,37.54079881307364,2.2857142857142856,2.2857142857142856,483253.87096774194,45304590.0
골목상권,1000602,초원로16길,126.81494811830154,37.565491790917164,0.2857142857142857,1.2857142857142858,384771.8387096774,45304590.0
골목상권,1000703,도신로15길,126.89826560580751,37.50758659507992,4.0,6.0,461356.9032258064,73212427.5
골목상권,1000580,공항대로8길,126.81213450593492,37.55908127038103,8.714285714285714,9.714285714285714,391698.1935483871,72568112.75
골목상권,1000641,도림로6길,126.88735191770702,37.484628061921924,3.0,4.142857142857143,509664.5806451613,46129329.5
골목상권,1000669,범안로17길,126.89329964913883,37.468415415509064,2.0,2.0,171409.64516129033,11667487.1875
골목상권,1000670,벚꽃로56길,126.88329501281478,37.48322756172124,2.0,2.0,270748.4516129032,45304590.0
골목상권,1000671,시흥대로120길,126.90073750479613,37.468647150162695,4.428571428571429,5.571428571428571,344286.7419354839,21563192.375
골목상권,1000672,시흥대로138길,126.89911566138557,37.472619231852526,3.0,4.0,261195.0,23606800.9375
골목상권,1000673,시흥대로141길,126.89726970818982,37.47500531724133,4.0,4.0,306680.48387096776,103856193.125
골목상권,1000667,문성로5길,126.90551868880223,37.47803058257482,1.8571428571428572,1.8571428571428572,244398.16129032258,45304590.0
골목상권,1000668,범안로11길,126.8903151212837,37.46856585469472,2.0,2.4285714285714284,145798.4516129032,17334024.875
골목상권,1000800,남부순환로248길,126.96756553849134,37.474676109308874,4.285714285714286,5.714285714285714,222880.4193548387,108935206.5625
골목상권,1000920,삼성로63길,127.05781090694133,37.499345027560665,4.857142857142857,5.857142857142857,729497.3548387097,184860397.3125
골목상권,1000438,모래내로15길,126.91807725205094,37.57297853641416,2.0,6.714285714285714,251196.35483870967,193972571.25
골목상권,1000439,북아현로4길,126.9583835106932,37.56020548456622,1.0,1.0,2144503.3870967743,3013714.3125
골목상권,1000440,세검정로1길,126.94460737605142,37.59355463245203,6.857142857142857,7.714285714285714,250974.96774193548,80255037.25
골목상권,1000441,세무서2길,126.9469779244135,37.587888480543,3.857142857142857,7.714285714285714,334947.3870967742,121160987.5
골목상권,1000906,도산대로23길,127.02576903961368,37.52101651168637,13.142857142857142,13.142857142857142,381253.87096774194,60098209.875
골목상권,1000907,도산대로30길,127.03014560224301,37.51795206514061,10.714285714285714,12.714285714285714,506036.5483870968,315287212.875
골목상권,1000908,도산대로38길,127.03218190388088,37.518420049589736,7.285714285714286,7.285714285714286,235252.83870967742,129532451.625
골목상권,1000909,도산대로50길,127.03801953842373,37.519950020100985,1.8571428571428572,1.8571428571428572,330520.4516129032,17821512.3125
골목상권,1000910,도산대로81길,127.04731117656527,37.52709161309576,9.571428571428571,9.571428571428571,168105.16129032258,45304590.0
골목상권,1000853,동광로12길,126.9856736503999,37.4889787035498,4.714285714285714,4.714285714285714,379681.9032258064,17020912.895833336
골목상권,1000891,개포로28길,127.0496995313817,37.47786869309814,3.0,3.0,233693.4193548387,109626115.75
골목상권,1000892,개포로82길,127.06774192646317,37.48886104037443,2.5714285714285716,5.428571428571429,52862.58064516129,228187642.625
골목상권,1000965,오금로46길,127.13344579954347,37.49368855412557,11.285714285714286,14.0,388620.22580645164,116522110.1875
골목상권,1000966,풍성로25길,127.1207234448462,37.5352925561113,2.0,2.0,503236.96774193546,19925525.1875
골목상권,1000443,수색로8길,126.90560884307486,37.57702370009597,1.5,1.5,360414.6129032258,45304590.0
골목상권,1000444,신촌로37길,126.95849768572373,37.55841254073902,1.0,2.0,696976.2903225806,45304590.0
골목상권,1000445,연희로10길,126.9320761840464,37.56479737250392,6.142857142857143,7.428571428571429,321093.87096774194,123579301.0
골목상권,1000446,응암로1길,126.90980350936994,37.581396799137536,6.428571428571429,6.714285714285714,418832.51612903224,147422950.6875
골목상권,1000447,증가로10길,126.92475005533531,37.578929540815,19.0,26.857142857142858,545095.5806451613,694840816.1875
골목상권,1000898,논현로139길,127.02758857121454,37.51633989386052,7.714285714285714,9.857142857142858,365892.70967741933,197927502.6875
골목상권,1000666,독산로85길,126.90240534020812,37.47264001490569,1.7142857142857142,1.7142857142857142,68186.64516129032,39234305.625
골목상권,1000544,중앙로36길,126.85735681942108,37.51955465302705,5.285714285714286,5.285714285714286,187668.06451612903,64017161.0
골목상권,1000545,중앙로45길,126.8507593581988,37.520870974289515,1.0,1.2857142857142858,420823.8387096774,62727784.1875
골목상권,1000546,중앙로47길,126.8507536272813,37.51806884973566,1.5,2.0,506304.3548387097,45304590.0
골목상권,1000547,중앙로51길,126.8452100217204,37.52397228826576,3.5714285714285716,3.5714285714285716,506496.1612903226,54656515.1875
골목상권,1000548,중앙로55길,126.8457264466168,37.525892097075555,3.0,3.0,419700.77419354836,45304590.0
골목상권,1000470,동교로38길,126.92568448734039,37.56137874630375,48.0,48.714285714285715,310769.1935483871,785977265.9375
골목상권,1000435,가재울로6길,126.92314578725028,37.575720968307834,6.0,6.0,403851.9032258064,45304590.0
골목상권,1000436,독립문로8길,126.96004359301305,37.56708066007585,3.0,3.0,716877.0,45304590.0
골목상권,1000437,명지대길,126.9238517784697,37.582785217185545,8.142857142857142,10.0,394177.4193548387,133420629.1875
골목상권,1000975,동남로82길,127.16260819772776,37.56101084885787,2.142857142857143,3.142857142857143,145780.7741935484,8406305.875
골목상권,1000976,동남로85길,127.15462896862834,37.56104859860324,4.714285714285714,6.714285714285714,238259.35483870967,28110243.25
골목상권,1000977,명일로13길,127.14335951395772,37.533303066327605,4.0,5.142857142857143,404924.6451612903,173283232.5625
골목상권,1000893,남부순환로365길,127.03955200669644,37.487215986254284,3.0,3.0,382773.5483870968,127696754.5
골목상권,1000570,곰달래로31길,126.85155056506117,37.532612017653655,2.7142857142857144,2.7142857142857144,380208.7419354839,67666943.8125
골목상권,1000571,곰달래로47길,126.85532449949133,37.5351485117875,2.142857142857143,2.142857142857143,353128.22580645164,28885847.125
골목상권,1000572,곰달래로53길,126.8574389059467,37.53586287316192,1.0,1.0,403760.3870967742,45304590.0
골목상권,1000573,곰달래로60길,126.86234715738803,37.53089517444793,0.5714285714285714,2.857142857142857,319168.1612903226,273337289.8125
골목상권,1000611,개봉로17다길,126.85288294678254,37.49362727025933,0.14285714285714285,1.5714285714285714,243189.5806451613,112400047.25
골목상권,1000612,개봉로1길,126.85254188562699,37.48304902137227,1.2857142857142858,1.2857142857142858,246303.5806451613,32638172.4375
골목상권,1000699,도림로112길,126.90259546188112,37.50905888215968,1.2857142857142858,1.2857142857142858,372359.87096774194,45304590.0
골목상권,1000894,논현로106길,127.03677983019988,37.50629119093642,9.0,9.285714285714286,431546.29032258067,129097042.25
골목상권,1000700,도림로147길,126.8900544673819,37.51530084165945,5.142857142857143,5.142857142857143,212711.4516129032,9970155.875
골목상권,1000701,도림로63길,126.90294739171549,37.499310296135214,0.0,0.0,237505.96774193548,45304590.0
골목상권,1000702,도림천로21길,126.90183189827928,37.48755123589951,3.0,4.0,577132.0967741936,39668714.0625
골목상권,1000793,난우길,126.91751592138444,37.47626457833994,3.2857142857142856,4.285714285714286,384455.87096774194,110342605.0
골목상권,1000984,성안로3길,127.12618546105597,37.5269255587548,12.714285714285714,14.714285714285714,534962.9032258064,329923059.0625
골목상권,1000845,강남대로34길,127.03918808735928,37.483206620446694,10.714285714285714,10.714285714285714,387109.96774193546,261267859.0625
골목상권,1000517,남부순환로88길,126.83842548180658,37.512087989505495,1.0,2.4285714285714284,109869.16129032258,24063888.0
골목상권,1000899,논현로159길,127.0239709294217,37.52263869528929,9.142857142857142,9.142857142857142,174563.64516129033,415512325.625
골목상권,1000900,논현로26길,127.04534964911423,37.482474599105096,13.428571428571429,16.714285714285715,288179.6129032258,2022275694.9375
골목상권,1000901,논현로28길,127.04427640502921,37.48392563005297,3.857142857142857,5.142857142857143,134471.96774193548,179739140.8125
골목상권,1000902,논현로63길,127.03701044044782,37.49231651300768,5.571428571428571,6.571428571428571,391560.06451612903,142560536.4375
골목상권,1000903,논현로8길,127.05189013077451,37.47397538942673,5.285714285714286,5.285714285714286,347027.8387096774,53001496.1875
골목상권,1000578,공항대로59다길,126.86922536818102,37.550598835530494,5.571428571428571,6.571428571428571,478210.12903225806,93961426.75
골목상권,1000579,공항대로61길,126.86625783421293,37.552046117801886,3.2857142857142856,6.857142857142857,329740.3548387097,369837774.0625
골목상권,1000967,강동대로53길,127.13198458352949,37.52439641598363,23.714285714285715,23.714285714285715,625969.3870967742,364706246.5625
골목상권,1000268,동소문로13길,127.01238735565101,37.5928281670956,2.857142857142857,3.857142857142857,468402.29032258067,108408346.8125
골목상권,1000269,동소문로15길,127.01533157804245,37.594017130592576,7.857142857142857,9.0,309438.5483870968,439347033.875
골목상권,1000270,동소문로26가길,127.02052899152012,37.59429564847353,6.571428571428571,6.571428571428571,633686.4516129033,25531558.125
골목상권,1000271,동소문로2길,127.0091145686545,37.589206476554295,2.7142857142857144,2.7142857142857144,140376.48387096773,45304590.0
골목상권,1000272,동소문로6길,127.00754067511231,37.58847678364256,1.0,4.857142857142857,139107.2258064516,480410598.25
골목상권,1000426,증산로5길,126.90615507052469,37.583781586949,5.0,5.0,283867.29032258067,30299453.9375
골목상권,1000427,증산로9길,126.90768081735715,37.58594517289959,2.4285714285714284,2.4285714285714284,243107.8064516129,45304590.0
전통시장,1001483,암사종합시장,127.12913430378785,37.55093401002546,1.1428571428571428,1.8571428571428572,280061.29032258067,45304590.0
전통시장,1001484,양지골목시장,127.13715494248555,37.555547082118686,1.2857142857142858,1.2857142857142858,46598.8064516129,45304590.0
전통시장,1001485,고분다리골목시장,127.13198250835251,37.542479496125054,0.42857142857142855,0.42857142857142855,57311.12903225807,45304590.0
전통시장,1001486,동서울시장,127.12815724265194,37.54208726998978,0.0,0.0,42774.06451612903,45304590.0
전통시장,1001487,천호시장,127.12766907211567,37.54114174964374,0.14285714285714285,0.14285714285714285,87564.32258064517,45304590.0
전통시장,1001488,성내골목시장,127.12758877674172,37.5338617579681,3.0,3.0,268938.87096774194,45304590.0
전통시장,1001489,둔촌역전통시장,127.13546358351955,37.527726182420885,4.571428571428571,4.857142857142857,189091.61290322582,128827070.8125
전통시장,1001339,정릉아리랑시장,127.01152825369557,37.602198562651196,2.142857142857143,2.142857142857143,112847.87096774194,45304590.0
전통시장,1001482,고덕전통시장,127.16943708416304,37.557793700368244,2.6666666666666665,4.0,65165.903225806454,45304590.0
전통시장,1001340,정릉시장,127.00841472283504,37.60826248857603,2.4285714285714284,4.428571428571429,233504.90322580645,192787248.0625
전통시장,1001341,길음시장,127.02207150374002,37.602944883916614,1.0,2.0,74607.87096774194,45304590.0
발달상권,1001226,서울 종로구 종로5가역_2,126.99981887891859,37.57350250845509,36.142857142857146,45.714285714285715,871502.2258064516,2427656546.75
발달상권,1001227,종로구청,126.98075603397336,37.57292430335778,66.85714285714286,107.14285714285714,569013.6774193548,7785550021.375
발달상권,1001228,서울 종로구 종로5가역_3,127.00473173180993,37.57261042876589,12.285714285714286,14.714285714285714,752281.0645161291,454564641.0
발달상권,1001229,서울 종로구 종로5가역_4,126.99687565984179,37.573538507045505,5.0,6.857142857142857,92753.83870967742,117478828.8125
발달상권,1001230,인사동,126.98531795215405,37.57309614789577,53.57142857142857,70.71428571428571,562218.8709677419,3712484323.125
발달상권,1001182,홍익대학교 주변,126.9215177589102,37.55213181853304,291.7142857142857,356.0,5144480.612903226,23007451542.3125
발달상권,1001173,서울 강동구 명일역,127.14390438098211,37.551899020354725,12.142857142857142,19.714285714285715,861833.1612903225,340791880.25
발달상권,1001174,등촌역,126.86539013592267,37.549990857086634,2.0,3.7142857142857144,205219.4516129032,96969138.875
발달상권,1001175,서울 강동구 고덕역,127.1545227012491,37.5534353171349,11.428571428571429,23.428571428571427,558349.6129032258,1113816682.375
발달상권,1001176,서울 중구 약수역_1,127.01080787340436,37.5541846519714,1.0,3.0,78682.06451612903,45304590.0
발달상권,1001177,서울 중구 약수역_2,127.00984593269446,37.554310875799594,2.0,5.0,236744.74193548388,378369811.25
발달상권,1001178,서울 마포구 홍대입구역_1,126.91907079194077,37.55447276086392,13.571428571428571,15.571428571428571,508956.67741935485,597735686.25
발달상권,1001179,강서구청,126.85066199138123,37.55268515079322,4.714285714285714,8.571428571428571,805474.1612903225,623740051.125
발달상권,1001180,신촌역,126.93574119173559,37.55425776075019,16.857142857142858,22.285714285714285,1552319.8064516129,702643745.1875
발달상권,1001191,왕십리역_1,127.03371594814102,37.559009679053744,3.0,3.0,61789.645161290326,45304590.0
골목상권,1000204,전농로3길,127.05653018478672,37.57055173004652,5.142857142857143,6.142857142857143,273496.29032258067,263430424.375
골목상권,1000205,전농로4길,127.05908515099729,37.5664149095073,1.7142857142857142,2.7142857142857144,304584.70967741933,11697815.5
골목상권,1000206,제기로21길,127.04129274015106,37.58881217895637,1.0,2.0,454915.3870967742,3665717.6875
골목상권,1000264,돌곶이로27길,127.05371794515982,37.610890461524406,2.5714285714285716,4.428571428571429,430374.1612903226,31783974.1875
골목상권,1000265,돌곶이로28길,127.05776255355016,37.61260043009234,1.4285714285714286,1.4285714285714286,200222.64516129033,45304590.0
골목상권,1000266,돌곶이로41길,127.04628100119824,37.617443799401606,4.0,4.857142857142857,209626.4516129032,45304590.0
전통시장,1001357,장미원골목시장,127.01436759339421,37.645004153410376,0.8571428571428571,0.8571428571428571,249557.48387096773,45304590.0
전통시장,1001358,수유북부시장,127.01609935005759,37.636327448161275,3.0,3.0,21547.225806451614,45304590.0
전통시장,1001348,동북시장,127.01917684551678,37.620163290436,0.0,0.0,36728.83870967742,45304590.0
전통시장,1001349,방천골목시장,127.03323033015705,37.61231256160675,1.0,2.0,375021.9032258064,30894281.25
전통시장,1001350,숭인시장,127.02925540308668,37.613538958742474,4.571428571428571,6.285714285714286,56641.48387096774,118708343.6875
전통시장,1001351,솔샘시장,127.01967503301859,37.6193793490474,2.0,2.142857142857143,100389.09677419355,45304590.0
전통시장,1001409,화곡중앙골목시장,126.83914637585305,37.534559954145735,0.0,1.5714285714285714,156310.2258064516,83475488.9375
전통시장,1001410,대원종합시장,126.83645447684854,37.54452130721962,3.0,3.0,30391.41935483871,45304590.0
전통시장,1001411,남부골목시장,126.86018235933966,37.53298295263819,7.714285714285714,8.714285714285714,305432.48387096776,25422196.75
전통시장,1001471,영동전통시장,127.0241815207913,37.50917765749701,2.5714285714285716,2.5714285714285716,256991.87096774194,62162443.0
전통시장,1001472,논현종합시장,127.03434985115916,37.509895941927546,1.0,1.0,28300.548387096773,45304590.0
전통시장,1001473,청담삼익시장,127.05768160424999,37.5223657518234,0.2857142857142857,0.2857142857142857,23616.0,45304590.0
발달상권,1001251,서울 강북구 미아삼거리역_1,127.03080671151173,37.612637575175675,12.571428571428571,19.571428571428573,566148.1935483871,1218453058.1875
발달상권,1001220,서울 종로구 동대문역_2,127.01287054611977,37.57134842884826,5.428571428571429,6.857142857142857,685616.3225806452,256601937.875
발달상권,1001221,장안동사거리,127.0714390363011,37.571507714415674,6.285714285714286,17.285714285714285,745560.6451612903,943925856.3125
발달상권,1001222,동묘앞역,127.01433117083198,37.573321439742294,4.285714285714286,5.285714285714286,94620.0,81460942.75
발달상권,1001223,서울 종로구 광화문역_2,126.97222102081379,37.57224685728405,75.71428571428571,99.14285714285714,835414.3870967742,4297580737.9375
발달상권,1001224,서울 동대문구 신설동역_1,127.02416858208171,37.57423885036018,6.428571428571429,6.428571428571429,252932.16129032258,185480744.5
발달상권,1001225,신설동역,127.02142911961398,37.57431145899912,2.2857142857142856,5.857142857142857,217325.06451612903,156606291.375
발달상권,1001197,장한평역_2,127.06143686641278,37.56320616309473,8.0,9.0,342647.51612903224,192183887.5625
발달상권,1001198,서울 강서구 송정역,126.81005792356302,37.561213307613876,8.428571428571429,11.142857142857142,295187.96774193546,289139998.5625
발달상권,1001168,남영역,126.97181349916802,37.5422165192116,7.571428571428571,14.428571428571429,148389.61290322582,892300939.5
발달상권,1001169,서울 용산구 숙대입구역,126.98007424505472,37.54014590248297,13.0,16.285714285714285,122192.3870967742,313234176.375
발달상권,1001170,공덕역,126.95117241695094,37.5451470462594,4.0,7.857142857142857,200610.38709677418,230501765.9375
발달상권,1001171,서울 마포구 공덕역_2,126.95243966350286,37.54533677328226,2.7142857142857144,3.7142857142857144,149141.70967741936,13644177.8125
발달상권,1001172,어린이대공원역,127.07184650807413,37.54789234072341,6.428571428571429,14.0,332346.12903225806,547117361.1875
골목상권,1000052,녹사평대로32길,126.99187653389038,37.53350693053599,6.166666666666667,7.166666666666667,191112.5806451613,147102049.0
골목상권,1000053,녹사평대로40나길,126.98890071042021,37.53510145989507,8.333333333333334,8.333333333333334,201524.90322580645,181328677.125
골목상권,1000055,대사관로34길,127.0058491638174,37.5311464419847,2.1666666666666665,2.1666666666666665,176419.61290322582,78323569.875
골목상권,1000133,긴고랑로20길,127.08391187928045,37.560047850983615,5.666666666666667,6.666666666666667,356025.8387096774,59387352.0
골목상권,1000201,장한로5길,127.06469832491446,37.56520463235324,7.142857142857143,10.142857142857142,406232.4516129032,138358426.25
골목상권,1000202,장한로8길,127.06859072957195,37.56382391111881,2.857142857142857,2.857142857142857,341115.8387096774,11654744.9375
골목상권,1000203,전농로29길,127.05495244963285,37.58009400671242,1.8571428571428572,1.8571428571428572,633420.6774193548,45304590.0
전통시장,1001343,장위전통시장,127.05120407843764,37.611540291124236,1.8571428571428572,1.8571428571428572,190009.1935483871,7610396.8125
전통시장,1001344,번동시장,127.04799382658258,37.62131736266813,3.0,3.0,7400.806451612903,45304590.0
골목상권,1000054,녹사평대로46길,126.98848165457555,37.53788551143475,10.5,10.833333333333334,171504.32258064515,769688743.8125
전통시장,1001345,새석관시장,127.0526740910292,37.6082149939322,3.0,3.0,28487.935483870966,45304590.0
전통시장,1001347,석관황금시장,127.06201876707541,37.60976015476928,1.0,1.0,271307.77419354836,45304590.0
전통시장,1001352,번동북부골목시장,127.03005721717192,37.6358562056237,0.8571428571428571,0.8571428571428571,233224.06451612903,45304590.0
전통시장,1001353,수유전통시장,127.02279356147206,37.63116369707503,1.7142857142857142,2.142857142857143,207094.12903225806,25947459.25
전통시장,1001342,밤나무골시장,127.03553915097254,37.608798031134796,1.0,1.0,49958.25806451613,45304590.0
전통시장,1001354,우이시장,127.01986346098334,37.64641790068386,2.2857142857142856,2.2857142857142856,254483.03225806452,45304590.0
전통시장,1001355,강북종합시장,127.02569758036077,37.64232630671905,2.4285714285714284,2.4285714285714284,158350.06451612903,14011626.4375
전통시장,1001346,석관시장,127.06040990437167,37.60897712863277,1.0,1.0,20892.612903225807,45304590.0
전통시장,1001356,수유중앙시장,127.02124412605004,37.64033601698045,3.0,3.0,13489.677419354839,45304590.0
발달상권,1001193,장한평역_1,127.0666084994249,37.562167212833174,2.142857142857143,5.142857142857143,243607.06451612903,214351956.0
발달상권,1001194,서울 강서구 발산역,126.84002047948114,37.55967195595673,6.142857142857143,12.0,281671.6451612903,309523930.25
발달상권,1001195,왕십리역_2,127.03452125471159,37.56277561284034,1.0,4.571428571428571,239671.7741935484,358713904.75
발달상권,1001196,시청역_1,126.97357184570602,37.56160640625744,29.571428571428573,49.57142857142857,435097.0967741936,5403660156.375
발달상권,1001247,미아사거리_2,127.02846040727952,37.60785391153568,2.0,4.0,66062.90322580645,177964278.5625
발달상권,1001248,서울 은평구 불광역_1,126.9293514089332,37.609494017226275,11.714285714285714,22.142857142857142,488548.51612903224,705035635.125
발달상권,1001218,동대문시장_2,127.00293177353281,37.570339979302354,5.428571428571429,6.714285714285714,324297.70967741933,97348951.8125
발달상권,1001219,서울 종로구 동대문역_1,127.01038029305984,37.57199739058875,0.5714285714285714,2.5714285714285716,115544.19354838709,284056654.0
발달상권,1001249,서울 은평구 불광역_2,126.93078893073027,37.61037783839104,2.7142857142857144,3.7142857142857144,471723.1935483871,91753422.125
발달상권,1001250,서울 은평구 불광역_3,126.92851185501709,37.6110251930763,1.2857142857142858,2.2857142857142856,438668.2727272727,284964362.875
발달상권,1001121,영등포역_3,126.9033176502657,37.519123686087624,4.714285714285714,4.714285714285714,461604.48387096776,118981152.5625
발달상권,1001122,여의도 시범아파트앞,126.93864462543911,37.519021180008956,10.714285714285714,16.428571428571427,141581.74193548388,449628538.25
발달상권,1001081,서울 강남구 역삼역_2,127.03916458764914,37.50316393578579,24.142857142857142,38.142857142857146,702266.3870967742,3286608909.5625
발달상권,1001161,건대입구역,127.07161119527795,37.53849506058198,1.8571428571428572,13.0,85978.06451612903,3225062990.125
발달상권,1001162,서울 광진구 건대입구역_1,127.06789004263021,37.54004697841197,19.571428571428573,26.285714285714285,457729.96774193546,1210390819.625
발달상권,1001163,서울 강동구 천호역_2,127.12685146616113,37.53942172192042,23.0,48.285714285714285,1156191.4193548388,1989426954.4375
발달상권,1001164,서울 마포구 마포역_1,126.947453239336,37.53985658258465,11.285714285714286,18.857142857142858,771023.2258064516,1646606074.875
골목상권,1000128,광나루로24길,127.07592918297232,37.54545708931707,14.666666666666666,22.666666666666668,279102.87096774194,432824133.1875
골목상권,1000129,광나루로36길,127.08621340020343,37.543837240312854,7.333333333333333,8.333333333333334,209907.1935483871,96554489.1875
골목상권,1000130,광나루로37길,127.0878902619949,37.54567404210782,2.0,2.0,238614.70967741936,10632114.9375
발달상권,1001160,서울 광진구 구의역,127.08551647174467,37.537990259627755,9.428571428571429,14.571428571428571,472288.77419354836,454407344.1875
골목상권,1000131,광나루로40길,127.08913185113586,37.54302417421869,2.1666666666666665,3.1666666666666665,651870.2903225806,107157079.0625
골목상권,1000048,퇴계로8길,126.9789946865649,37.55665201171774,6.0,6.0,166699.8064516129,69192857.0625
골목상권,1000049,퇴계로90길,127.0219806870213,37.563688619999134,5.166666666666667,6.166666666666667,491933.7419354839,62790173.5625
골목상권,1000050,녹사평대로11길,126.99319002668486,37.52177596888278,1.0,1.0,23089.354838709678,22824617.375
골목상권,1000051,녹사평대로26길,126.992465038759,37.53175902735252,11.666666666666666,11.666666666666666,132480.16129032258,375199480.75
전통시장,1001362,백운시장,127.01531027271143,37.65578880260641,1.0,1.0,40596.1935483871,45304590.0
전통시장,1001363,쌍문역골목시장,127.03256652711916,37.648424271229416,3.0,3.0,81468.06451612903,45304590.0
전통시장,1001364,방학동도깨비시장,127.03543007328953,37.66531685994615,2.7142857142857144,4.857142857142857,163792.61290322582,116693381.375
전통시장,1001365,공릉동도깨비시장,127.07590535261178,37.62232983491129,7.285714285714286,7.285714285714286,200080.16129032258,5320227.9375
전통시장,1001366,상계시장,127.07785282932137,37.66494510620511,3.0,3.0,20144.516129032258,45304590.0
전통시장,1001367,상계중앙시장,127.0699935590849,37.65977840010375,3.0,3.2857142857142856,497442.3548387097,19549690.5625
전통시장,1001399,경창시장,126.84249336482793,37.52475256789359,1.0,1.0,73193.35483870968,20344320.5
전통시장,1001400,신월3동골목시장,126.82656656654997,37.53389342965823,0.0,0.0,76552.6129032258,45304590.0
전통시장,1001401,신곡종합시장,126.84516492854235,37.518422056675405,3.0,3.0,55065.0,45304590.0
전통시장,1001402,신월6동골목시장,126.84258665601156,37.5180402276155,1.7142857142857142,2.857142857142857,58370.16129032258,37406189.625
전통시장,1001481,명일골목시장,127.14529114835729,37.5492213591063,0.14285714285714285,0.14285714285714285,143565.7741935484,2352746.9375
발달상권,1001158,당산역_2,126.90084136296099,37.53545679215062,7.428571428571429,11.428571428571429,319246.3870967742,391862029.25
발달상권,1001159,서울 강동구 천호역,127.12297995481092,37.5383175876603,3.7142857142857144,8.714285714285714,227001.5806451613,592293135.9375
발달상권,1001209,서울시청,126.97946695387179,37.56783346248198,15.857142857142858,41.0,491584.8064516129,2766533876.625
발달상권,1001210,시청역_2,126.97139767081269,37.56439898859326,20.428571428571427,38.857142857142854,277250.0967741936,3389250423.6875
발달상권,1001212,서대문구 서대문역_1,126.96599701842904,37.568001540525145,6.714285714285714,9.714285714285714,143667.25806451612,27358704.895833332
발달상권,1001213,종각역 젊음의 거리,126.98548849171972,37.5692849591627,24.285714285714285,42.285714285714285,1301651.935483871,2803574383.4375
발달상권,1001214,종각역,126.98113043437411,37.569590681504245,1.4285714285714286,5.428571428571429,85099.90322580645,453299458.8125
발달상권,1001215,서울 종로구 광화문역_1,126.97484828351335,37.56912099259995,9.571428571428571,21.428571428571427,412098.3548387097,2411114422.8125
발달상권,1001216,서울 종로구 종로3가역_1,126.98997099045238,37.569249385228055,20.142857142857142,34.714285714285715,444562.12903225806,1187152756.125
발달상권,1001211,동대문시장_1,127.00688203068009,37.567303459950246,5.714285714285714,12.428571428571429,320656.87096774194,902465238.5625
골목상권,1000194,이문로42길,127.06462716679306,37.60073984650877,1.8571428571428572,1.8571428571428572,398882.87096774194,45304590.0
골목상권,1000256,용마산로100길,127.09942427979222,37.59063357186286,3.0,4.0,354183.0,18344058.625
골목상권,1000257,용마산로112길,127.10449748246018,37.59919761600953,6.571428571428571,8.571428571428571,483069.1935483871,133110489.875
골목상권,1000258,용마산로118길,127.10443208268727,37.60101767455427,6.285714285714286,7.142857142857143,353686.51612903224,76476739.4375
골목상권,1000228,동일로100길,127.08315286238451,37.58995239238665,4.428571428571429,4.428571428571429,478022.3548387097,3297789.3125
골목상권,1000306,창경궁로43길,127.00364580946099,37.58883736522831,10.285714285714286,13.285714285714286,243096.0,256866409.375
골목상권,1000460,대흥로28길,126.94701246757504,37.555119304672736,3.142857142857143,3.142857142857143,360588.03225806454,109611988.5625
골목상권,1000010,성균관로5길,126.99685257144091,37.58418825624836,11.166666666666666,13.166666666666666,253226.48387096773,193780365.375
골목상권,1000011,숭인동길,127.02219966011049,37.57689717095477,2.1666666666666665,3.8333333333333335,306121.22580645164,64398935.3125
골목상권,1000012,옥인길,126.96647805541343,37.58069669360434,8.666666666666666,8.666666666666666,258612.51612903227,119548131.625
골목상권,1000013,율곡로10길,126.99112476338325,37.57606099987723,10.5,11.5,93516.32258064517,315450017.8125
골목상권,1000014,율곡로16길,127.00404134640954,37.57502512057401,0.0,0.0,121647.03225806452,45304590.0
골목상권,1000015,이화장길,127.00484527087895,37.577854212833884,12.0,15.0,260078.67741935485,725338591.1875
